time,minutes,seconds,latitude,longitude,pitch,roll,yaw,accelG,sideG
1881,0,0,,0.00,0.0070.66,75.98,301.35,0.00,0.00
2935,0,0,,0.00,0.0044.06,46.46,296.45,0.00,0.00
3943,0,0,,0.00,0.0043.43,29.00,269.98,0.00,0.00
4960,0,0,,0.00,0.0041.22,17.50,263.96,0.00,0.00
5977,0,0,,0.00,0.0080.05,4.65,261.28,0.00,0.00
6994,0,0,,0.00,0.0079.81,-3.88,263.78,0.00,0.00
8011,0,0,,0.00,0.0078.79,-4.92,264.52,0.00,0.00
9028,0,0,,0.00,0.0078.57,-5.08,264.74,0.00,0.00
10106,0,0,,0.00,0.0078.78,-4.95,267.57,0.00,0.00
11114,0,0,,0.00,0.0078.22,-4.55,267.87,0.00,0.00
12121,0,0,,0.00,0.0078.14,-4.17,266.66,0.00,0.00
13127,0,0,,0.00,0.0078.47,-4.42,266.14,0.00,0.00
14140,0,0,,0.00,0.0078.46,-4.21,266.74,0.00,0.00
15145,0,0,,0.00,0.0078.40,-4.29,266.40,0.00,0.00
16152,0,0,,0.00,0.0078.60,-4.56,265.50,0.00,0.00
16169,0,0,,0.00,0.0078.59,-4.52,265.57,0.00,0.00
16185,0,0,,0.00,0.0078.59,-4.52,265.57,0.00,0.00
16206,0,0,,0.00,0.0078.59,-4.53,265.74,0.00,0.00
16222,0,0,,0.00,0.0078.59,-4.53,265.74,0.00,0.00
16237,0,0,,0.00,0.0078.62,-4.46,265.78,0.00,0.00
16252,0,0,,0.00,0.0078.62,-4.46,265.78,0.00,0.00
16273,0,0,,0.00,0.0078.60,-4.41,265.80,0.00,0.00
16289,0,0,,0.00,0.0078.60,-4.41,265.80,0.00,0.00
16311,0,0,,0.00,0.0078.63,-4.37,265.83,0.00,0.00
16326,0,0,,0.00,0.0078.60,-4.34,265.86,0.00,0.00
16342,0,0,,0.00,0.0078.60,-4.34,265.86,0.00,0.00
16357,0,0,,0.00,0.0078.58,-4.37,265.87,0.00,0.00
16382,0,0,,0.00,0.0078.56,-4.35,265.89,0.00,0.00
16398,0,0,,0.00,0.0078.56,-4.35,265.89,0.00,0.00
16422,0,0,,0.00,0.0078.57,-4.34,265.90,0.00,0.00
16437,0,0,,0.00,0.0078.50,-4.40,265.93,0.00,0.00
16454,0,0,,0.00,0.0078.50,-4.40,265.93,0.00,0.00
16469,0,0,,0.00,0.0078.52,-4.39,265.92,0.00,0.00
16491,0,0,,0.00,0.0078.57,-4.36,265.92,0.00,0.00
16507,0,0,,0.00,0.0078.57,-4.36,265.92,0.00,0.00
16522,0,0,,0.00,0.0078.49,-4.35,265.87,0.00,0.00
16538,0,0,,0.00,0.0078.49,-4.35,265.87,0.00,0.00
16553,0,0,,0.00,0.0078.44,-4.25,265.51,0.00,0.00
16568,0,0,,0.00,0.0078.44,-4.25,265.51,0.00,0.00
16583,0,0,,0.00,0.0078.41,-4.23,265.07,0.00,0.00
16599,0,0,,0.00,0.0078.41,-4.23,265.07,0.00,0.00
16614,0,0,,0.00,0.0078.33,-4.05,264.16,0.00,0.00
16630,0,0,,0.00,0.0078.33,-4.05,264.16,0.00,0.00
16651,0,0,,0.00,0.0078.32,-4.09,264.16,0.00,0.00
16667,0,0,,0.00,0.0078.27,-4.10,264.07,0.00,0.00
16683,0,0,,0.00,0.0078.27,-4.10,264.07,0.00,0.00
16706,0,0,,0.00,0.0078.27,-4.06,264.04,0.00,0.00
16721,0,0,,0.00,0.0078.28,-4.12,264.04,0.00,0.00
16736,0,0,,0.00,0.0078.28,-4.12,264.04,0.00,0.00
16751,0,0,,0.00,0.0078.30,-4.20,264.06,0.00,0.00
16767,0,0,,0.00,0.0078.30,-4.20,264.06,0.00,0.00
16782,0,0,,0.00,0.0078.29,-4.21,264.03,0.00,0.00
16798,0,0,,0.00,0.0078.29,-4.21,264.03,0.00,0.00
16818,0,0,,0.00,0.0078.35,-4.21,264.03,0.00,0.00
16835,0,0,,0.00,0.0078.34,-4.21,264.03,0.00,0.00
16851,0,0,,0.00,0.0078.34,-4.21,264.03,0.00,0.00
16866,0,0,,0.00,0.0078.32,-4.27,264.05,0.00,0.00
16882,0,0,,0.00,0.0078.32,-4.27,264.05,0.00,0.00
16897,0,0,,0.00,0.0078.32,-4.33,264.07,0.00,0.00
16912,0,0,,0.00,0.0078.32,-4.33,264.07,0.00,0.00
16932,0,0,,0.00,0.0078.27,-4.33,264.08,0.00,0.00
16949,0,0,,0.00,0.0078.24,-4.29,264.07,0.00,0.00
16966,0,0,,0.00,0.0078.24,-4.29,264.07,0.00,0.00
16981,0,0,,0.00,0.0078.27,-4.34,264.08,0.00,0.00
16997,0,0,,0.00,0.0078.27,-4.34,264.08,0.00,0.00
17012,0,0,,0.00,0.0078.32,-4.38,264.07,0.00,0.00
17027,0,0,,0.00,0.0078.32,-4.38,264.07,0.00,0.00
17047,0,0,,0.00,0.0078.32,-4.35,264.08,0.00,0.00
17064,0,0,,0.00,0.0078.32,-4.33,264.04,0.00,0.00
17080,0,0,,0.00,0.0078.32,-4.33,264.04,0.00,0.00
17095,0,0,,0.00,0.0078.33,-4.32,264.01,0.00,0.00
17111,0,0,,0.00,0.0078.33,-4.32,264.01,0.00,0.00
17128,0,0,,0.00,0.0078.37,-4.33,264.00,0.00,0.00
17143,0,0,,0.00,0.0078.37,-4.33,264.00,0.00,0.00
17163,0,0,,0.00,0.0078.33,-4.36,263.98,0.00,0.00
17180,0,0,,0.00,0.0078.31,-4.35,263.98,0.00,0.00
17196,0,0,,0.00,0.0078.31,-4.35,263.98,0.00,0.00
17221,0,0,,0.00,0.0078.33,-4.43,263.98,0.00,0.00
17236,0,0,,0.00,0.0078.35,-4.46,263.99,0.00,0.00
17251,0,0,,0.00,0.0078.35,-4.46,263.99,0.00,0.00
17272,0,0,,0.00,0.0078.32,-4.50,263.99,0.00,0.00
17288,0,0,,0.00,0.0078.29,-4.53,264.02,0.00,0.00
17304,0,0,,0.00,0.0078.29,-4.53,264.02,0.00,0.00
17333,0,0,,0.00,0.0078.36,-4.56,264.02,0.00,0.00
17351,0,0,,0.00,0.0078.36,-4.62,264.05,0.00,0.00
17368,0,0,,0.00,0.0078.36,-4.62,264.05,0.00,0.00
17389,0,0,,0.00,0.0078.34,-4.62,264.06,0.00,0.00
17407,0,0,,0.00,0.0078.37,-4.64,264.05,0.00,0.00
17424,0,0,,0.00,0.0078.37,-4.64,264.05,0.00,0.00
17447,0,0,,0.00,0.0078.33,-4.68,264.08,0.00,0.00
17464,0,0,,0.00,0.0078.33,-4.67,264.09,0.00,0.00
17481,0,0,,0.00,0.0078.33,-4.67,264.09,0.00,0.00
17502,0,0,,0.00,0.0078.36,-4.66,264.10,0.00,0.00
17521,0,0,,0.00,0.0078.35,-4.66,264.10,0.00,0.00
17538,0,0,,0.00,0.0078.35,-4.66,264.10,0.00,0.00
17561,0,0,,0.00,0.0078.37,-4.68,264.10,0.00,0.00
17578,0,0,,0.00,0.0078.33,-4.70,264.10,0.00,0.00
17595,0,0,,0.00,0.0078.33,-4.70,264.10,0.00,0.00
17616,0,0,,0.00,0.0078.36,-4.73,264.14,0.00,0.00
17634,0,0,,0.00,0.0078.46,-4.76,264.14,0.00,0.00
17651,0,0,,0.00,0.0078.46,-4.76,264.14,0.00,0.00
17674,0,0,,0.00,0.0078.46,-4.79,264.39,0.00,0.00
17691,0,0,,0.00,0.0078.48,-4.84,264.44,0.00,0.00
17709,0,0,,0.00,0.0078.48,-4.84,264.44,0.00,0.00
17730,0,0,,0.00,0.0078.57,-4.93,264.68,0.00,0.00
17748,0,0,,0.00,0.0078.73,-4.95,264.86,0.00,0.00
17765,0,0,,0.00,0.0078.73,-4.95,264.86,0.00,0.00
17788,0,0,,0.00,0.0079.00,-4.75,264.91,0.00,0.00
17805,0,0,,0.00,0.0079.19,-4.49,265.04,0.00,0.00
17822,0,0,,0.00,0.0079.19,-4.49,265.04,0.00,0.00
17843,0,0,,0.00,0.0079.32,-4.36,265.01,0.00,0.00
17861,0,0,,0.00,0.0079.29,-4.28,265.00,0.00,0.00
17878,0,0,,0.00,0.0079.29,-4.28,265.00,0.00,0.00
17903,0,0,,0.00,0.0079.10,-4.21,264.98,0.00,0.00
17920,0,0,,0.00,0.0079.06,-4.12,265.04,0.00,0.00
17937,0,0,,0.00,0.0079.06,-4.12,265.04,0.00,0.00
17959,0,0,,0.00,0.0079.20,-3.97,265.01,0.00,0.00
17976,0,0,,0.00,0.0079.34,-3.75,265.00,0.00,0.00
17993,0,0,,0.00,0.0079.34,-3.75,265.00,0.00,0.00
18016,0,0,,0.00,0.0079.40,-3.55,265.03,0.00,0.00
18033,0,0,,0.00,0.0079.28,-3.13,265.00,0.00,0.00
18050,0,0,,0.00,0.0079.28,-3.13,265.00,0.00,0.00
18071,0,0,,0.00,0.0079.39,-2.49,265.29,0.00,0.00
18089,0,0,,0.00,0.0079.62,-2.13,265.52,0.00,0.00
18107,0,0,,0.00,0.0079.62,-2.13,265.52,0.00,0.00
18130,0,0,,0.00,0.0079.87,-1.71,265.83,0.00,0.00
18147,0,0,,0.00,0.0079.90,-1.34,266.14,0.00,0.00
18164,0,0,,0.00,0.0079.90,-1.34,266.14,0.00,0.00
18185,0,0,,0.00,0.0079.94,-0.90,266.48,0.00,0.00
18203,0,0,,0.00,0.0080.04,-0.57,266.75,0.00,0.00
18220,0,0,,0.00,0.0080.04,-0.57,266.75,0.00,0.00
18243,0,0,,0.00,0.0080.17,-0.39,267.04,0.00,0.00
18260,0,0,,0.00,0.0080.09,-0.10,267.22,0.00,0.00
18277,0,0,,0.00,0.0080.09,-0.10,267.22,0.00,0.00
18300,0,0,,0.00,0.0080.12,0.12,267.37,0.00,0.00
18317,0,0,,0.00,0.0080.08,0.34,267.42,0.00,0.00
18334,0,0,,0.00,0.0080.08,0.34,267.42,0.00,0.00
18357,0,0,,0.00,0.0080.21,0.45,267.48,0.00,0.00
18374,0,0,,0.00,0.0080.34,0.55,267.57,0.00,0.00
18391,0,0,,0.00,0.0080.34,0.55,267.57,0.00,0.00
18412,0,0,,0.00,0.0080.42,0.73,267.64,0.00,0.00
18429,0,0,,0.00,0.0080.42,0.88,267.73,0.00,0.00
18446,0,0,,0.00,0.0080.42,0.88,267.73,0.00,0.00
18469,0,0,,0.00,0.0080.47,0.98,267.84,0.00,0.00
18488,0,0,,0.00,0.0080.46,1.06,267.96,0.00,0.00
18510,0,0,,0.00,0.0080.46,1.24,268.13,0.00,0.00
18529,0,0,,0.00,0.0080.46,1.24,268.13,0.00,0.00
18546,0,0,,0.00,0.0080.45,1.56,268.30,0.00,0.00
18567,0,0,,0.00,0.0080.41,1.92,268.44,0.00,0.00
18586,0,0,,0.00,0.0080.41,1.92,268.44,0.00,0.00
18603,0,0,,0.00,0.0080.39,2.37,268.75,0.00,0.00
18625,0,0,,0.00,0.0080.26,2.81,269.03,0.00,0.00
18644,0,0,,0.00,0.0080.26,2.81,269.03,0.00,0.00
18661,0,0,,0.00,0.0080.13,3.40,269.36,0.00,0.00
18683,0,0,,0.00,0.0080.02,3.75,269.61,0.00,0.00
18709,0,0,,0.00,0.0079.89,4.18,269.80,0.00,0.00
18726,0,0,,0.00,0.0079.89,4.18,269.80,0.00,0.00
18750,0,0,,0.00,0.0079.73,4.74,270.09,0.00,0.00
18767,0,0,,0.00,0.0079.72,5.07,270.38,0.00,0.00
18784,0,0,,0.00,0.0079.72,5.07,270.38,0.00,0.00
18801,0,0,,0.00,0.0079.68,5.47,270.76,0.00,0.00
18824,0,0,,0.00,0.0079.52,5.92,270.99,0.00,0.00
18841,0,0,,0.00,0.0079.52,5.92,270.99,0.00,0.00
18862,0,0,,0.00,0.0079.41,6.32,271.26,0.00,0.00
18879,0,0,,0.00,0.0079.38,6.65,271.47,0.00,0.00
18905,0,0,,0.00,0.0079.35,7.16,271.89,0.00,0.00
18935,0,0,,0.00,0.0079.27,7.81,272.21,0.00,0.00
18952,0,0,,0.00,0.0079.27,7.81,272.21,0.00,0.00
18973,0,0,,0.00,0.0078.96,8.65,272.58,0.00,0.00
18990,0,0,,0.00,0.0078.74,9.17,272.71,0.00,0.00
19007,0,0,,0.00,0.0078.74,9.17,272.71,0.00,0.00
19024,0,0,,0.00,0.0078.39,9.91,272.93,0.00,0.00
19047,0,0,,0.00,0.0077.68,10.89,273.03,0.00,0.00
19064,0,0,,0.00,0.0077.68,10.89,273.03,0.00,0.00
19085,0,0,,0.00,0.0077.55,11.67,272.76,0.00,0.00
19102,0,0,,0.00,0.0077.59,11.97,272.81,0.00,0.00
19121,0,0,,0.00,0.0077.59,11.97,272.81,0.00,0.00
19138,0,0,,0.00,0.0077.61,12.13,273.11,0.00,0.00
19161,0,0,,0.00,0.0077.52,12.69,273.79,0.00,0.00
19178,0,0,,0.00,0.0077.52,12.69,273.79,0.00,0.00
19199,0,0,,0.00,0.0077.52,13.06,273.92,0.00,0.00
19216,0,0,,0.00,0.0077.47,13.52,273.91,0.00,0.00
19233,0,0,,0.00,0.0077.47,13.52,273.91,0.00,0.00
19250,0,0,,0.00,0.0077.45,14.36,274.20,0.00,0.00
19273,0,0,,0.00,0.0077.37,15.14,274.63,0.00,0.00
19290,0,0,,0.00,0.0077.37,15.14,274.63,0.00,0.00
19313,0,0,,0.00,0.0077.39,16.02,274.86,0.00,0.00
19330,0,0,,0.00,0.0077.51,17.02,275.19,0.00,0.00
19347,0,0,,0.00,0.0077.51,17.02,275.19,0.00,0.00
19364,0,0,,0.00,0.0078.04,18.39,275.45,0.00,0.00
19387,0,0,,0.00,0.0078.83,20.29,274.86,0.00,0.00
19404,0,0,,0.00,0.0078.83,20.29,274.86,0.00,0.00
19425,0,0,,0.00,0.0079.60,22.14,274.98,0.00,0.00
19442,0,0,,0.00,0.0080.23,23.70,275.05,0.00,0.00
19459,0,0,,0.00,0.0080.23,23.70,275.05,0.00,0.00
19476,0,0,,0.00,0.0080.17,24.82,274.95,0.00,0.00
19501,0,0,,0.00,0.0080.06,25.74,275.03,0.00,0.00
19518,0,0,,0.00,0.0080.06,25.74,275.03,0.00,0.00
19539,0,0,,0.00,0.0079.96,26.62,275.20,0.00,0.00
19556,0,0,,0.00,0.0079.81,27.42,275.16,0.00,0.00
19573,0,0,,0.00,0.0079.81,27.42,275.16,0.00,0.00
19590,0,0,,0.00,0.0079.68,28.44,275.38,0.00,0.00
19613,0,0,,0.00,0.0079.65,29.05,275.47,0.00,0.00
19630,0,0,,0.00,0.0079.65,29.05,275.47,0.00,0.00
19652,0,0,,0.00,0.0079.51,29.67,275.42,0.00,0.00
19669,0,0,,0.00,0.0079.42,30.32,275.43,0.00,0.00
19687,0,0,,0.00,0.0079.42,30.32,275.43,0.00,0.00
19704,0,0,,0.00,0.0079.42,31.16,275.55,0.00,0.00
19727,0,0,,0.00,0.0079.38,31.75,275.69,0.00,0.00
19744,0,0,,0.00,0.0079.38,31.75,275.69,0.00,0.00
19765,0,0,,0.00,0.0079.37,32.28,275.71,0.00,0.00
19782,0,0,,0.00,0.0079.45,32.91,275.49,0.00,0.00
19799,0,0,,0.00,0.0079.45,32.91,275.49,0.00,0.00
19816,0,0,,0.00,0.0079.50,33.47,275.67,0.00,0.00
19839,0,0,,0.00,0.0079.44,33.78,276.07,0.00,0.00
19856,0,0,,0.00,0.0079.44,33.78,276.07,0.00,0.00
19879,0,0,,0.00,0.0079.39,34.19,276.00,0.00,0.00
19896,0,0,,0.00,0.0079.39,34.77,276.07,0.00,0.00
19913,0,0,,0.00,0.0079.39,34.77,276.07,0.00,0.00
19930,0,0,,0.00,0.0079.30,35.36,276.41,0.00,0.00
19953,0,0,,0.00,0.0079.16,36.04,276.76,0.00,0.00
19970,0,0,,0.00,0.0079.16,36.04,276.76,0.00,0.00
19992,0,0,,0.00,0.0078.97,36.80,277.11,0.00,0.00
20009,0,0,,0.00,0.0078.87,37.70,277.26,0.00,0.00
20027,0,0,,0.00,0.0078.87,37.70,277.26,0.00,0.00
20044,0,0,,0.00,0.0078.75,38.59,277.40,0.00,0.00
20067,0,0,,0.00,0.0078.41,39.21,277.57,0.00,0.00
20086,0,0,,0.00,0.0078.41,39.21,277.57,0.00,0.00
20108,0,0,,0.00,0.0078.29,39.92,277.39,0.00,0.00
20126,0,0,,0.00,0.0078.29,40.18,277.17,0.00,0.00
20143,0,0,,0.00,0.0078.29,40.18,277.17,0.00,0.00
20160,0,0,,0.00,0.0078.15,40.59,276.88,0.00,0.00
20183,0,0,,0.00,0.0078.19,40.91,276.48,0.00,0.00
20200,0,0,,0.00,0.0078.19,40.91,276.48,0.00,0.00
20222,0,0,,0.00,0.0078.06,41.77,276.63,0.00,0.00
20239,0,0,,0.00,0.0078.02,42.29,276.94,0.00,0.00
20256,0,0,,0.00,0.0078.02,42.29,276.94,0.00,0.00
20274,0,0,,0.00,0.0077.92,42.94,277.19,0.00,0.00
20297,0,0,,0.00,0.0077.93,43.58,277.20,0.00,0.00
20314,0,0,,0.00,0.0077.93,43.58,277.20,0.00,0.00
20336,0,0,,0.00,0.0077.91,44.17,277.26,0.00,0.00
20353,0,0,,0.00,0.0077.55,44.42,277.05,0.00,0.00
20370,0,0,,0.00,0.0077.55,44.42,277.05,0.00,0.00
20387,0,0,,0.00,0.0077.51,45.11,277.08,0.00,0.00
20410,0,0,,0.00,0.0077.23,45.47,278.01,0.00,0.00
20427,0,0,,0.00,0.0077.23,45.47,278.01,0.00,0.00
20449,0,0,,0.00,0.0077.05,45.96,278.53,0.00,0.00
20472,0,0,,0.00,0.0077.09,46.68,278.49,0.00,0.00
20494,0,0,,0.00,0.0077.01,47.23,278.71,0.00,0.00
20522,0,0,,0.00,0.0076.95,47.89,278.76,0.00,0.00
20539,0,0,,0.00,0.0076.95,47.89,278.76,0.00,0.00
20561,0,0,,0.00,0.0077.08,48.67,278.56,0.00,0.00
20579,0,0,,0.00,0.0077.01,49.20,278.40,0.00,0.00
20596,0,0,,0.00,0.0077.01,49.20,278.40,0.00,0.00
20613,0,0,,0.00,0.0077.02,49.62,278.14,0.00,0.00
20636,0,0,,0.00,0.0077.19,50.06,277.32,0.00,0.00
20653,0,0,,0.00,0.0077.19,50.06,277.32,0.00,0.00
20676,0,0,,0.00,0.0077.17,50.32,276.85,0.00,0.00
20694,0,0,,0.00,0.0077.15,50.64,276.65,0.00,0.00
20711,0,0,,0.00,0.0077.15,50.64,276.65,0.00,0.00
20728,0,0,,0.00,0.0077.09,51.12,276.44,0.00,0.00
20751,0,0,,0.00,0.0077.01,51.63,276.46,0.00,0.00
20768,0,0,,0.00,0.0077.01,51.63,276.46,0.00,0.00
20790,0,0,,0.00,0.0076.92,52.03,276.60,0.00,0.00
20808,0,0,,0.00,0.0076.73,52.39,276.86,0.00,0.00
20824,0,0,,0.00,0.0076.73,52.39,276.86,0.00,0.00
20841,0,0,,0.00,0.0076.91,53.01,276.51,0.00,0.00
20864,0,0,,0.00,0.0076.98,53.50,276.49,0.00,0.00
20883,0,0,,0.00,0.0076.98,53.50,276.49,0.00,0.00
20905,0,0,,0.00,0.0076.88,54.13,276.54,0.00,0.00
20923,0,0,,0.00,0.0076.76,54.57,276.57,0.00,0.00
20939,0,0,,0.00,0.0076.76,54.57,276.57,0.00,0.00
20956,0,0,,0.00,0.0076.75,54.96,276.36,0.00,0.00
20979,0,0,,0.00,0.0076.70,55.26,276.21,0.00,0.00
20996,0,0,,0.00,0.0076.70,55.26,276.21,0.00,0.00
21018,0,0,,0.00,0.0076.71,55.68,276.01,0.00,0.00
21035,0,0,,0.00,0.0076.64,55.99,275.87,0.00,0.00
21052,0,0,,0.00,0.0076.64,55.99,275.87,0.00,0.00
21070,0,0,,0.00,0.0076.59,56.20,275.72,0.00,0.00
21093,0,0,,0.00,0.0076.67,56.50,275.43,0.00,0.00
21110,0,0,,0.00,0.0076.67,56.50,275.43,0.00,0.00
21131,0,0,,0.00,0.0076.43,56.47,275.37,0.00,0.00
21148,0,0,,0.00,0.0076.48,56.51,275.07,0.00,0.00
21166,0,0,,0.00,0.0076.48,56.51,275.07,0.00,0.00
21183,0,0,,0.00,0.0076.58,56.53,274.67,0.00,0.00
21206,0,0,,0.00,0.0076.65,56.51,274.28,0.00,0.00
21223,0,0,,0.00,0.0076.65,56.51,274.28,0.00,0.00
21245,0,0,,0.00,0.0076.56,55.94,273.76,0.00,0.00
21263,0,0,,0.00,0.0077.06,55.38,272.63,0.00,0.00
21280,0,0,,0.00,0.0077.06,55.38,272.63,0.00,0.00
21297,0,0,,0.00,0.0077.41,54.57,271.46,0.00,0.00
21320,0,0,,0.00,0.0077.86,53.86,270.37,0.00,0.00
21337,0,0,,0.00,0.0077.86,53.86,270.37,0.00,0.00
21359,0,0,,0.00,0.0078.28,53.09,269.69,0.00,0.00
21377,0,0,,0.00,0.0078.70,52.23,269.07,0.00,0.00
21393,0,0,,0.00,0.0078.70,52.23,269.07,0.00,0.00
21410,0,0,,0.00,0.0078.95,51.59,268.77,0.00,0.00
21433,0,0,,0.00,0.0079.17,51.02,268.37,0.00,0.00
21452,0,0,,0.00,0.0079.17,51.02,268.37,0.00,0.00
21474,0,0,,0.00,0.0079.32,50.40,267.96,0.00,0.00
21492,0,0,,0.00,0.0079.54,49.82,267.38,0.00,0.00
21509,0,0,,0.00,0.0079.54,49.82,267.38,0.00,0.00
21526,0,0,,0.00,0.0079.59,49.43,267.08,0.00,0.00
21549,0,0,,0.00,0.0079.77,49.16,266.65,0.00,0.00
21566,0,0,,0.00,0.0079.77,49.16,266.65,0.00,0.00
21588,0,0,,0.00,0.0079.76,48.90,266.67,0.00,0.00
21605,0,0,,0.00,0.0079.81,48.58,266.57,0.00,0.00
21622,0,0,,0.00,0.0079.81,48.58,266.57,0.00,0.00
21639,0,0,,0.00,0.0079.89,48.32,266.61,0.00,0.00
21664,0,0,,0.00,0.0079.93,48.27,266.66,0.00,0.00
21681,0,0,,0.00,0.0079.93,48.27,266.66,0.00,0.00
21703,0,0,,0.00,0.0079.88,48.26,266.75,0.00,0.00
21720,0,0,,0.00,0.0079.82,48.14,266.83,0.00,0.00
21737,0,0,,0.00,0.0079.82,48.14,266.83,0.00,0.00
21754,0,0,,0.00,0.0079.88,48.11,266.80,0.00,0.00
21777,0,0,,0.00,0.0079.96,48.02,266.82,0.00,0.00
21794,0,0,,0.00,0.0079.96,48.02,266.82,0.00,0.00
21816,0,0,,0.00,0.0080.35,47.48,265.96,0.00,0.00
21834,0,0,,0.00,0.0080.47,46.94,265.77,0.00,0.00
21852,0,0,,0.00,0.0080.47,46.94,265.77,0.00,0.00
21869,0,0,,0.00,0.0080.74,46.15,265.23,0.00,0.00
21892,0,0,,0.00,0.0080.82,45.23,264.71,0.00,0.00
21909,0,0,,0.00,0.0080.82,45.23,264.71,0.00,0.00
21931,0,0,,0.00,0.0080.93,44.23,264.08,0.00,0.00
21949,0,0,,0.00,0.0081.14,43.29,263.45,0.00,0.00
21965,0,0,,0.00,0.0081.14,43.29,263.45,0.00,0.00
21982,0,0,,0.00,0.0081.28,42.84,263.42,0.00,0.00
22005,0,0,,0.00,0.0081.37,42.37,263.61,0.00,0.00
22022,0,0,,0.00,0.0081.37,42.37,263.61,0.00,0.00
22050,0,0,,0.00,0.0081.45,41.95,263.80,0.00,0.00
22120,0,0,,0.00,0.0081.63,40.68,264.60,0.00,0.00
22147,0,0,,0.00,0.0081.60,40.21,265.01,0.00,0.00
22165,0,0,,0.00,0.0081.60,40.21,265.01,0.00,0.00
22182,0,0,,0.00,0.0081.63,39.38,265.46,0.00,0.00
22204,0,0,,0.00,0.0081.66,38.63,265.68,0.00,0.00
22222,0,0,,0.00,0.0081.66,38.63,265.68,0.00,0.00
22248,0,0,,0.00,0.0081.72,37.99,265.82,0.00,0.00
22272,0,0,,0.00,0.0081.83,37.37,265.88,0.00,0.00
22289,0,0,,0.00,0.0081.91,36.72,265.92,0.00,0.00
22307,0,0,,0.00,0.0081.91,36.72,265.92,0.00,0.00
22323,0,0,,0.00,0.0082.29,34.93,264.49,0.00,0.00
22339,0,0,,0.00,0.0082.29,34.93,264.49,0.00,0.00
22362,0,0,,0.00,0.0082.60,33.16,263.84,0.00,0.00
22387,0,0,,0.00,0.0082.65,31.89,263.78,0.00,0.00
22404,0,0,,0.00,0.0082.65,30.70,263.94,0.00,0.00
22421,0,0,,0.00,0.0082.65,30.70,263.94,0.00,0.00
22438,0,0,,0.00,0.0082.89,29.52,263.79,0.00,0.00
22459,0,0,,0.00,0.0082.99,28.62,263.63,0.00,0.00
22477,0,0,,0.00,0.0082.99,28.62,263.63,0.00,0.00
22499,0,0,,0.00,0.0082.95,27.90,263.55,0.00,0.00
22517,0,0,,0.00,0.0082.70,26.86,263.72,0.00,0.00
22533,0,0,,0.00,0.0082.70,26.86,263.72,0.00,0.00
22550,0,0,,0.00,0.0082.53,25.40,263.97,0.00,0.00
22571,0,0,,0.00,0.0082.50,24.37,264.20,0.00,0.00
22589,0,0,,0.00,0.0082.50,24.37,264.20,0.00,0.00
22611,0,0,,0.00,0.0082.50,22.90,264.46,0.00,0.00
22628,0,0,,0.00,0.0082.54,21.45,264.82,0.00,0.00
22645,0,0,,0.00,0.0082.54,21.45,264.82,0.00,0.00
22662,0,0,,0.00,0.0082.36,20.87,265.69,0.00,0.00
22683,0,0,,0.00,0.0082.07,20.39,266.32,0.00,0.00
22703,0,0,,0.00,0.0082.07,20.39,266.32,0.00,0.00
22724,0,0,,0.00,0.0081.83,20.04,266.70,0.00,0.00
22741,0,0,,0.00,0.0081.71,19.68,266.84,0.00,0.00
22758,0,0,,0.00,0.0081.71,19.68,266.84,0.00,0.00
22775,0,0,,0.00,0.0081.78,19.36,266.81,0.00,0.00
22796,0,0,,0.00,0.0081.80,19.08,266.89,0.00,0.00
22814,0,0,,0.00,0.0081.80,19.08,266.89,0.00,0.00
22836,0,0,,0.00,0.0081.79,18.81,267.07,0.00,0.00
22853,0,0,,0.00,0.0081.74,18.46,267.27,0.00,0.00
22870,0,0,,0.00,0.0081.74,18.46,267.27,0.00,0.00
22888,0,0,,0.00,0.0081.62,18.23,267.50,0.00,0.00
22904,0,0,,0.00,0.0081.62,18.23,267.50,0.00,0.00
22927,0,0,,0.00,0.0081.55,17.77,267.68,0.00,0.00
22952,0,0,,0.00,0.0081.53,17.38,267.89,0.00,0.00
22969,0,0,,0.00,0.0081.54,16.95,268.17,0.00,0.00
22986,0,0,,0.00,0.0081.54,16.95,268.17,0.00,0.00
23003,0,0,,0.00,0.0081.61,16.42,268.33,0.00,0.00
23024,0,0,,0.00,0.0081.70,15.89,268.53,0.00,0.00
23042,0,0,,0.00,0.0081.70,15.89,268.53,0.00,0.00
23064,0,0,,0.00,0.0081.80,15.37,268.56,0.00,0.00
23082,0,0,,0.00,0.0081.89,14.97,268.61,0.00,0.00
23098,0,0,,0.00,0.0081.89,14.97,268.61,0.00,0.00
23115,0,0,,0.00,0.0081.99,14.58,268.65,0.00,0.00
23136,0,0,,0.00,0.0082.11,14.15,268.66,0.00,0.00
23154,0,0,,0.00,0.0082.11,14.15,268.66,0.00,0.00
23176,0,0,,0.00,0.0082.22,13.68,268.75,0.00,0.00
23193,0,0,,0.00,0.0082.29,13.24,268.90,0.00,0.00
23209,0,0,,0.00,0.0082.29,13.24,268.90,0.00,0.00
23226,0,0,,0.00,0.0082.35,12.71,269.05,0.00,0.00
23247,0,0,,0.00,0.0082.35,12.26,269.17,0.00,0.00
23265,0,0,,0.00,0.0082.35,12.26,269.17,0.00,0.00
23288,0,0,,0.00,0.0082.35,11.68,269.42,0.00,0.00
23305,0,0,,0.00,0.0082.34,11.17,269.49,0.00,0.00
23322,0,0,,0.00,0.0082.34,11.17,269.49,0.00,0.00
23339,0,0,,0.00,0.0082.32,10.67,269.57,0.00,0.00
23360,0,0,,0.00,0.0082.33,10.30,269.70,0.00,0.00
23378,0,0,,0.00,0.0082.33,10.30,269.70,0.00,0.00
23400,0,0,,0.00,0.0082.25,9.88,269.98,0.00,0.00
23416,0,0,,0.00,0.0082.17,9.54,270.18,0.00,0.00
23433,0,0,,0.00,0.0082.17,9.54,270.18,0.00,0.00
23450,0,0,,0.00,0.0082.00,9.17,270.26,0.00,0.00
23471,0,0,,0.00,0.0081.90,8.79,270.40,0.00,0.00
23488,0,0,,0.00,0.0081.90,8.79,270.40,0.00,0.00
23510,0,0,,0.00,0.0081.79,8.45,270.59,0.00,0.00
23527,0,0,,0.00,0.0081.75,8.11,270.71,0.00,0.00
23544,0,0,,0.00,0.0081.75,8.11,270.71,0.00,0.00
23561,0,0,,0.00,0.0081.56,7.55,271.10,0.00,0.00
23582,0,0,,0.00,0.0081.40,7.18,271.37,0.00,0.00
23600,0,0,,0.00,0.0081.40,7.18,271.37,0.00,0.00
23621,0,0,,0.00,0.0081.17,6.95,271.38,0.00,0.00
23638,0,0,,0.00,0.0081.10,6.80,271.31,0.00,0.00
23664,0,0,,0.00,0.0081.07,6.60,271.33,0.00,0.00
23682,0,0,,0.00,0.0081.07,6.60,271.33,0.00,0.00
23699,0,0,,0.00,0.0081.09,6.42,271.53,0.00,0.00
23722,0,0,,0.00,0.0081.10,6.13,271.88,0.00,0.00
23741,0,0,,0.00,0.0081.10,6.13,271.88,0.00,0.00
23758,0,0,,0.00,0.0081.02,5.88,272.11,0.00,0.00
23779,0,0,,0.00,0.0080.97,5.56,272.24,0.00,0.00
23796,0,0,,0.00,0.0080.97,5.56,272.24,0.00,0.00
23813,0,0,,0.00,0.0080.87,5.19,272.29,0.00,0.00
23836,0,0,,0.00,0.0080.81,4.77,272.27,0.00,0.00
23855,0,0,,0.00,0.0080.81,4.77,272.27,0.00,0.00
23873,0,0,,0.00,0.0080.51,4.05,272.09,0.00,0.00
23895,0,0,,0.00,0.0080.35,3.57,271.96,0.00,0.00
23912,0,0,,0.00,0.0080.35,3.57,271.96,0.00,0.00
23929,0,0,,0.00,0.0080.25,3.09,271.93,0.00,0.00
23952,0,0,,0.00,0.0080.46,2.82,271.98,0.00,0.00
23970,0,0,,0.00,0.0080.46,2.82,271.98,0.00,0.00
23987,0,0,,0.00,0.0080.37,2.46,272.04,0.00,0.00
24008,0,0,,0.00,0.0080.37,2.21,272.00,0.00,0.00
24025,0,0,,0.00,0.0080.37,2.21,272.00,0.00,0.00
24042,0,0,,0.00,0.0080.37,2.00,271.99,0.00,0.00
24066,0,0,,0.00,0.0080.31,1.78,272.03,0.00,0.00
24085,0,0,,0.00,0.0080.31,1.78,272.03,0.00,0.00
24102,0,0,,0.00,0.0080.33,1.39,272.19,0.00,0.00
24123,0,0,,0.00,0.0080.36,1.11,272.30,0.00,0.00
24140,0,0,,0.00,0.0080.36,1.11,272.30,0.00,0.00
24157,0,0,,0.00,0.0080.38,0.80,272.43,0.00,0.00
24180,0,0,,0.00,0.0080.39,0.44,272.37,0.00,0.00
24198,0,0,,0.00,0.0080.39,0.44,272.37,0.00,0.00
24215,0,0,,0.00,0.0080.35,0.26,272.41,0.00,0.00
24236,0,0,,0.00,0.0080.39,0.16,272.45,0.00,0.00
24253,0,0,,0.00,0.0080.39,0.16,272.45,0.00,0.00
24271,0,0,,0.00,0.0080.43,0.02,272.56,0.00,0.00
24294,0,0,,0.00,0.0080.40,-0.14,272.66,0.00,0.00
24312,0,0,,0.00,0.0080.40,-0.14,272.66,0.00,0.00
24329,0,0,,0.00,0.0080.37,-0.34,272.68,0.00,0.00
24350,0,0,,0.00,0.0080.35,-0.51,272.76,0.00,0.00
24367,0,0,,0.00,0.0080.35,-0.51,272.76,0.00,0.00
24384,0,0,,0.00,0.0080.31,-0.72,272.77,0.00,0.00
24407,0,0,,0.00,0.0080.26,-0.91,272.83,0.00,0.00
24425,0,0,,0.00,0.0080.26,-0.91,272.83,0.00,0.00
24442,0,0,,0.00,0.0080.25,-1.07,272.89,0.00,0.00
24463,0,0,,0.00,0.0080.19,-1.16,272.90,0.00,0.00
24480,0,0,,0.00,0.0080.19,-1.16,272.90,0.00,0.00
24497,0,0,,0.00,0.0080.16,-1.29,272.93,0.00,0.00
24520,0,0,,0.00,0.0080.14,-1.41,273.03,0.00,0.00
24538,0,0,,0.00,0.0080.14,-1.41,273.03,0.00,0.00
24555,0,0,,0.00,0.0080.08,-1.55,273.00,0.00,0.00
24576,0,0,,0.00,0.0080.04,-1.64,272.99,0.00,0.00
24593,0,0,,0.00,0.0080.04,-1.64,272.99,0.00,0.00
24610,0,0,,0.00,0.0080.03,-1.80,273.01,0.00,0.00
24633,0,0,,0.00,0.0079.97,-1.92,273.13,0.00,0.00
24653,0,0,,0.00,0.0079.97,-1.92,273.13,0.00,0.00
24670,0,0,,0.00,0.0079.91,-2.05,273.27,0.00,0.00
24691,0,0,,0.00,0.0079.89,-2.14,273.30,0.00,0.00
24708,0,0,,0.00,0.0079.89,-2.14,273.30,0.00,0.00
24725,0,0,,0.00,0.0079.93,-2.20,273.35,0.00,0.00
24748,0,0,,0.00,0.0079.90,-2.33,273.45,0.00,0.00
24767,0,0,,0.00,0.0079.90,-2.33,273.45,0.00,0.00
24784,0,0,,0.00,0.0079.90,-2.39,273.50,0.00,0.00
24805,0,0,,0.00,0.0079.88,-2.51,273.58,0.00,0.00
24822,0,0,,0.00,0.0079.88,-2.51,273.58,0.00,0.00
24840,0,0,,0.00,0.0079.84,-2.66,273.47,0.00,0.00
24863,0,0,,0.00,0.0079.76,-2.78,273.49,0.00,0.00
24882,0,0,,0.00,0.0079.76,-2.78,273.49,0.00,0.00
24899,0,0,,0.00,0.0079.71,-2.76,273.43,0.00,0.00
24920,0,0,,0.00,0.0079.66,-2.81,273.42,0.00,0.00
24937,0,0,,0.00,0.0079.66,-2.81,273.42,0.00,0.00
24954,0,0,,0.00,0.0079.60,-2.89,273.39,0.00,0.00
24977,0,0,,0.00,0.0079.56,-2.97,273.35,0.00,0.00
24995,0,0,,0.00,0.0079.56,-2.97,273.35,0.00,0.00
25012,0,0,,0.00,0.0079.54,-3.04,273.32,0.00,0.00
25033,0,0,,0.00,0.0079.50,-3.28,273.41,0.00,0.00
25052,0,0,,0.00,0.0079.50,-3.28,273.41,0.00,0.00
25069,0,0,,0.00,0.0079.53,-3.38,273.32,0.00,0.00
25092,0,0,,0.00,0.0079.64,-3.40,273.18,0.00,0.00
25111,0,0,,0.00,0.0079.64,-3.40,273.18,0.00,0.00
25128,0,0,,0.00,0.0079.79,-3.29,272.95,0.00,0.00
25149,0,0,,0.00,0.0079.83,-3.29,272.93,0.00,0.00
25166,0,0,,0.00,0.0079.83,-3.29,272.93,0.00,0.00
25183,0,0,,0.00,0.0079.85,-3.27,272.90,0.00,0.00
25206,0,0,,0.00,0.0079.81,-3.28,272.88,0.00,0.00
25225,0,0,,0.00,0.0079.81,-3.28,272.88,0.00,0.00
25248,0,0,,0.00,0.0079.94,-3.26,272.83,0.00,0.00
25269,0,0,,0.00,0.0080.03,-3.28,272.80,0.00,0.00
25286,0,0,,0.00,0.0080.03,-3.28,272.80,0.00,0.00
25311,0,0,,0.00,0.0080.43,-3.26,272.78,0.00,0.00
25333,0,0,,0.00,0.0080.79,-3.24,272.73,0.00,0.00
25351,0,0,,0.00,0.0080.73,-3.24,272.70,0.00,0.00
25368,0,0,,0.00,0.0080.73,-3.24,272.70,0.00,0.00
25385,0,0,,0.00,0.0081.00,-3.26,272.67,0.00,0.00
25406,0,0,,0.00,0.0081.18,-3.26,273.39,0.00,0.00
25424,0,0,,0.00,0.0081.18,-3.26,273.39,0.00,0.00
25447,0,0,,0.00,0.0081.68,-3.29,273.78,0.00,0.00
25464,0,0,,0.00,0.0082.07,-3.32,274.03,0.00,0.00
25481,0,0,,0.00,0.0082.07,-3.32,274.03,0.00,0.00
25498,0,0,,0.00,0.0082.44,-3.32,274.18,0.00,0.00
25519,0,0,,0.00,0.0082.43,-3.27,274.19,0.00,0.00
25537,0,0,,0.00,0.0082.43,-3.27,274.19,0.00,0.00
25559,0,0,,0.00,0.0082.05,-3.30,274.16,0.00,0.00
25576,0,0,,0.00,0.0081.59,-3.33,274.14,0.00,0.00
25593,0,0,,0.00,0.0081.59,-3.33,274.14,0.00,0.00
25610,0,0,,0.00,0.0081.48,-3.35,274.13,0.00,0.00
25631,0,0,,0.00,0.0081.57,-3.33,274.08,0.00,0.00
25649,0,0,,0.00,0.0081.57,-3.33,274.08,0.00,0.00
25671,0,0,,0.00,0.0081.66,-3.31,274.05,0.00,0.00
25688,0,0,,0.00,0.0081.74,-3.32,274.03,0.00,0.00
25705,0,0,,0.00,0.0081.74,-3.32,274.03,0.00,0.00
25722,0,0,,0.00,0.0081.68,-3.34,274.01,0.00,0.00
25743,0,0,,0.00,0.0081.64,-3.39,274.01,0.00,0.00
25761,0,0,,0.00,0.0081.64,-3.39,274.01,0.00,0.00
25783,0,0,,0.00,0.0081.56,-3.40,273.98,0.00,0.00
25800,0,0,,0.00,0.0081.61,-3.43,273.96,0.00,0.00
25817,0,0,,0.00,0.0081.61,-3.43,273.96,0.00,0.00
25835,0,0,,0.00,0.0081.77,-3.45,273.94,0.00,0.00
25857,0,0,,0.00,0.0081.79,-3.42,273.92,0.00,0.00
25875,0,0,,0.00,0.0081.79,-3.42,273.92,0.00,0.00
25897,0,0,,0.00,0.0081.66,-3.43,273.87,0.00,0.00
25914,0,0,,0.00,0.0081.46,-3.44,273.83,0.00,0.00
25931,0,0,,0.00,0.0081.46,-3.44,273.83,0.00,0.00
25948,0,0,,0.00,0.0081.23,-3.44,273.82,0.00,0.00
25969,0,0,,0.00,0.0081.01,-3.43,273.79,0.00,0.00
25987,0,0,,0.00,0.0081.01,-3.43,273.79,0.00,0.00
26041,0,0,,0.00,0.0080.68,-3.43,273.73,0.00,0.00
26060,0,0,,0.00,0.0080.60,-3.44,273.72,0.00,0.00
26077,0,0,,0.00,0.0080.60,-3.44,273.72,0.00,0.00
26100,0,0,,0.00,0.0080.68,-3.43,273.69,0.00,0.00
26117,0,0,,0.00,0.0080.80,-3.39,273.66,0.00,0.00
26134,0,0,,0.00,0.0080.80,-3.39,273.66,0.00,0.00
26156,0,0,,0.00,0.0080.89,-3.38,273.64,0.00,0.00
26173,0,0,,0.00,0.0080.91,-3.39,273.61,0.00,0.00
26190,0,0,,0.00,0.0080.91,-3.39,273.61,0.00,0.00
26213,0,0,,0.00,0.0080.83,-3.40,273.60,0.00,0.00
26230,0,0,,0.00,0.0080.76,-3.39,273.58,0.00,0.00
26248,0,0,,0.00,0.0080.76,-3.39,273.58,0.00,0.00
26269,0,0,,0.00,0.0080.79,-3.40,273.57,0.00,0.00
26286,0,0,,0.00,0.0080.77,-3.40,273.54,0.00,0.00
26303,0,0,,0.00,0.0080.77,-3.40,273.54,0.00,0.00
26326,0,0,,0.00,0.0080.62,-3.44,273.52,0.00,0.00
26343,0,0,,0.00,0.0080.42,-3.45,273.48,0.00,0.00
26360,0,0,,0.00,0.0080.42,-3.45,273.48,0.00,0.00
26381,0,0,,0.00,0.0080.32,-3.42,273.44,0.00,0.00
26399,0,0,,0.00,0.0080.28,-3.44,273.42,0.00,0.00
26416,0,0,,0.00,0.0080.28,-3.44,273.42,0.00,0.00
26441,0,0,,0.00,0.0080.29,-3.45,273.40,0.00,0.00
26458,0,0,,0.00,0.0080.39,-3.45,273.36,0.00,0.00
26475,0,0,,0.00,0.0080.39,-3.45,273.36,0.00,0.00
26496,0,0,,0.00,0.0080.33,-3.42,273.33,0.00,0.00
26514,0,0,,0.00,0.0080.24,-3.40,273.30,0.00,0.00
26531,0,0,,0.00,0.0080.24,-3.40,273.30,0.00,0.00
26554,0,0,,0.00,0.0080.21,-3.43,273.28,0.00,0.00
26571,0,0,,0.00,0.0080.14,-3.43,273.24,0.00,0.00
26588,0,0,,0.00,0.0080.14,-3.43,273.24,0.00,0.00
26609,0,0,,0.00,0.0080.00,-3.39,273.19,0.00,0.00
26627,0,0,,0.00,0.0079.91,-3.41,273.16,0.00,0.00
26645,0,0,,0.00,0.0079.91,-3.41,273.16,0.00,0.00
26668,0,0,,0.00,0.0079.90,-3.39,273.14,0.00,0.00
26685,0,0,,0.00,0.0079.99,-3.36,273.11,0.00,0.00
26702,0,0,,0.00,0.0079.99,-3.36,273.11,0.00,0.00
26723,0,0,,0.00,0.0080.08,-3.30,273.03,0.00,0.00
26741,0,0,,0.00,0.0080.09,-3.30,272.98,0.00,0.00
26758,0,0,,0.00,0.0080.09,-3.30,272.98,0.00,0.00
26781,0,0,,0.00,0.0080.17,-3.27,272.94,0.00,0.00
26798,0,0,,0.00,0.0080.08,-3.28,273.01,0.00,0.00
26815,0,0,,0.00,0.0080.08,-3.28,273.01,0.00,0.00
26843,0,0,,0.00,0.0079.92,-3.30,273.00,0.00,0.00
26861,0,0,,0.00,0.0079.89,-3.29,272.99,0.00,0.00
26878,0,0,,0.00,0.0079.89,-3.29,272.99,0.00,0.00
26901,0,0,,0.00,0.0079.84,-3.29,272.94,0.00,0.00
26918,0,0,,0.00,0.0079.76,-3.32,272.93,0.00,0.00
26935,0,0,,0.00,0.0079.76,-3.32,272.93,0.00,0.00
26956,0,0,,0.00,0.0079.69,-3.32,272.90,0.00,0.00
26974,0,0,,0.00,0.0079.69,-3.32,272.88,0.00,0.00
26991,0,0,,0.00,0.0079.69,-3.32,272.88,0.00,0.00
27014,0,0,,0.00,0.0079.86,-3.29,272.85,0.00,0.00
27033,0,0,,0.00,0.0079.90,-3.28,272.82,0.00,0.00
27055,0,0,,0.00,0.0079.87,-3.24,272.78,0.00,0.00
27074,0,0,,0.00,0.0079.87,-3.24,272.78,0.00,0.00
27091,0,0,,0.00,0.0079.75,-3.21,272.73,0.00,0.00
27112,0,0,,0.00,0.0079.69,-3.27,272.92,0.00,0.00
27132,0,0,,0.00,0.0079.69,-3.27,272.92,0.00,0.00
27149,0,0,,0.00,0.0079.72,-3.28,273.04,0.00,0.00
27170,0,0,,0.00,0.0079.72,-3.32,273.07,0.00,0.00
27189,0,0,,0.00,0.0079.72,-3.32,273.07,0.00,0.00
27206,0,0,,0.00,0.0079.65,-3.28,273.03,0.00,0.00
27228,0,0,,0.00,0.0079.46,-3.28,273.00,0.00,0.00
27254,0,0,,0.00,0.0079.37,-3.32,272.97,0.00,0.00
27271,0,0,,0.00,0.0079.37,-3.32,272.97,0.00,0.00
27295,0,0,,0.00,0.0079.32,-3.30,272.92,0.00,0.00
27312,0,0,,0.00,0.0079.31,-3.27,272.61,0.00,0.00
27329,0,0,,0.00,0.0079.31,-3.27,272.61,0.00,0.00
27356,0,0,,0.00,0.0079.28,-3.23,272.20,0.00,0.00
27373,0,0,,0.00,0.0079.34,-3.14,271.66,0.00,0.00
27395,0,0,,0.00,0.0079.51,-3.04,270.99,0.00,0.00
27414,0,0,,0.00,0.0079.51,-3.04,270.99,0.00,0.00
27431,0,0,,0.00,0.0079.93,-2.96,270.37,0.00,0.00
27452,0,0,,0.00,0.0080.32,-2.92,270.17,0.00,0.00
27470,0,0,,0.00,0.0080.32,-2.92,270.17,0.00,0.00
27487,0,0,,0.00,0.0080.28,-2.84,270.09,0.00,0.00
27508,0,0,,0.00,0.0080.10,-2.86,269.99,0.00,0.00
27527,0,0,,0.00,0.0080.10,-2.86,269.99,0.00,0.00
27544,0,0,,0.00,0.0079.89,-2.94,269.91,0.00,0.00
27565,0,0,,0.00,0.0079.86,-3.00,270.02,0.00,0.00
27583,0,0,,0.00,0.0079.86,-3.00,270.02,0.00,0.00
28590,0,0,,0.00,0.0079.04,-3.30,271.01,0.00,0.00
29597,0,0,,0.00,0.0078.57,-3.67,270.86,0.00,0.00
30613,0,0,,0.00,0.0078.24,-3.76,267.16,0.00,0.00
31620,0,0,,0.00,0.0080.30,-4.85,261.86,0.00,0.00
32627,0,0,,0.00,0.0081.21,-5.66,260.43,0.00,0.00
1832,0,0,,0.00,0.00-10.27,60.04,308.42,0.00,0.00
11841,0,0,,0.00,0.0049.50,-18.68,273.58,0.00,0.00
21848,0,0,,0.00,0.0013.14,-15.72,25.42,0.00,0.00
31855,0,0,,0.00,0.0063.82,-16.57,308.49,0.00,0.00
41874,0,0,,0.00,0.000.44,-26.84,254.54,0.00,0.00
51886,0,0,,0.00,0.002.74,10.21,342.60,0.00,0.00
61893,0,0,,0.00,0.0035.87,-21.75,299.28,0.00,0.00
71901,0,0,,0.00,0.0031.17,77.78,55.37,0.00,0.00
81908,0,0,,0.00,0.0038.36,-16.44,247.25,0.00,0.00
91915,0,0,,0.00,0.00-8.01,0.46,37.46,0.00,0.00
101922,0,0,,0.00,0.0025.15,1.00,200.92,0.00,0.00
111936,0,0,,0.00,0.003.73,-31.35,187.33,0.00,0.00
121943,0,0,,0.00,0.008.14,8.72,325.10,0.00,0.00
131950,0,0,,0.00,0.0029.97,-18.23,254.93,0.00,0.00
141957,0,0,,0.00,0.00-0.81,8.94,355.92,0.00,0.00
151977,0,0,,0.00,0.0026.64,-5.66,275.58,0.00,0.00
161992,0,0,,0.00,0.00-9.49,4.96,36.88,0.00,0.00
172002,0,0,,0.00,0.0020.78,1.31,289.86,0.00,0.00
182009,0,0,,0.00,0.00-16.44,-9.09,104.11,0.00,0.00
192016,0,0,,0.00,0.0011.01,8.10,315.29,0.00,0.00
202035,0,0,,0.00,0.0037.33,-0.91,185.98,0.00,0.00
212050,0,0,,0.00,0.0098.51,10.21,272.42,0.00,0.00
222060,0,0,,0.00,0.0083.30,-0.48,44.88,0.00,0.00
232067,0,0,,0.00,0.0082.65,-1.01,38.89,0.00,0.00
242074,0,0,,0.00,0.0081.81,-1.22,31.76,0.00,0.00
252093,0,0,,0.00,0.0080.99,-1.68,24.32,0.00,0.00
262107,0,0,,0.00,0.0079.96,-1.77,14.96,0.00,0.00
272118,0,0,,0.00,0.0079.09,-1.97,5.90,0.00,0.00
282125,0,0,,0.00,0.0077.81,-2.07,355.19,0.00,0.00
292132,0,0,,0.00,0.0076.56,-2.11,343.90,0.00,0.00
302152,0,0,,0.00,0.0075.37,-2.03,333.91,0.00,0.00
312167,0,0,,0.00,0.0073.89,-1.69,322.91,0.00,0.00
322177,0,0,,0.00,0.0072.43,-1.32,312.79,0.00,0.00
332184,0,0,,0.00,0.0070.77,-0.51,302.30,0.00,0.00
342191,0,0,,0.00,0.0068.87,0.45,291.23,0.00,0.00
352211,0,0,,0.00,0.0067.25,1.84,281.83,0.00,0.00
362226,0,0,,0.00,0.0065.75,4.04,271.22,0.00,0.00
372236,0,0,,0.00,0.0015.00,11.65,3.02,0.00,0.00
382250,0,0,,0.00,0.0024.08,-7.80,274.65,0.00,0.00
392270,0,0,,0.00,0.008.29,6.57,311.74,0.00,0.00
402277,0,0,,0.00,0.00-20.99,-4.18,84.01,0.00,0.00
412284,0,0,,0.00,0.0017.53,0.09,288.35,0.00,0.00
422291,0,0,,0.00,0.00-2.87,9.32,344.89,0.00,0.00
432298,0,0,,0.00,0.0026.68,-16.26,261.58,0.00,0.00
442305,0,0,,0.00,0.009.34,6.35,307.93,0.00,0.00
1779,0,0,,0.00,0.0018.91,70.34,320.03,0.00,0.00
11788,0,0,,0.00,0.0015.10,-0.97,232.40,0.00,0.00
21794,0,0,,0.00,0.0013.69,-2.93,227.39,0.00,0.00
31802,0,0,,0.00,0.0013.99,-2.64,228.04,0.00,0.00
41823,0,0,,0.00,0.0014.47,-1.89,229.20,0.00,0.00
51836,0,0,,0.00,0.0014.76,-1.71,229.52,0.00,0.00
61848,0,0,,0.00,0.0015.30,-1.48,230.02,0.00,0.00
71854,0,0,,0.00,0.0015.48,-1.85,229.62,0.00,0.00
81861,0,0,,0.00,0.0015.73,-2.05,229.42,0.00,0.00
91881,0,0,,0.00,0.0015.81,-2.12,229.36,0.00,0.00
101894,0,0,,0.00,0.0015.65,-2.55,228.74,0.00,0.00
111906,0,0,,0.00,0.0015.68,-2.74,228.51,0.00,0.00
1779,0,0,,0.00,0.0025.56,68.52,314.22,0.00,0.00
1841,0,0,,0.00,0.0076.17,-15.14,71.73,0.00,0.00
11850,0,0,,0.00,0.0083.48,-40.21,8.86,0.00,0.00
21857,0,0,,0.00,0.0071.22,-9.68,146.83,0.00,0.00
31864,0,0,,0.00,0.0047.05,-30.35,268.32,0.00,0.00
41884,0,0,,0.00,0.0060.24,-6.41,221.70,0.00,0.00
51897,0,0,,0.00,0.0041.38,10.71,239.84,0.00,0.00
61909,0,0,,0.00,0.0022.05,16.97,13.47,0.00,0.00
71916,0,0,,0.00,0.0048.81,-11.23,277.11,0.00,0.00
81923,0,0,,0.00,0.0047.95,10.37,188.72,0.00,0.00
91943,0,0,,0.00,0.0045.29,-28.49,304.75,0.00,0.00
101956,0,0,,0.00,0.0046.79,13.22,202.53,0.00,0.00
111968,0,0,,0.00,0.007.32,14.18,188.38,0.00,0.00
121975,0,0,,0.00,0.009.08,18.68,170.95,0.00,0.00
131982,0,0,,0.00,0.001.41,26.34,153.98,0.00,0.00
142002,0,0,,0.00,0.00-1.95,32.84,135.49,0.00,0.00
152015,0,0,,0.00,0.00-3.92,37.67,117.82,0.00,0.00
162027,0,0,,0.00,0.00-4.68,40.83,105.53,0.00,0.00
172035,0,0,,0.00,0.00-5.37,43.87,92.30,0.00,0.00
182042,0,0,,0.00,0.00-5.04,46.56,80.11,0.00,0.00
192062,0,0,,0.00,0.0075.98,-5.89,239.43,0.00,0.00
202075,0,0,,0.00,0.000.13,34.31,136.28,0.00,0.00
212087,0,0,,0.00,0.00-3.22,42.68,94.31,0.00,0.00
222095,0,0,,0.00,0.00-2.84,47.83,70.82,0.00,0.00
232102,0,0,,0.00,0.001.91,54.46,39.25,0.00,0.00
242122,0,0,,0.00,0.0020.77,61.01,347.38,0.00,0.00
252135,0,0,,0.00,0.0051.11,54.34,283.12,0.00,0.00
262147,0,0,,0.00,0.0058.37,34.40,240.78,0.00,0.00
272155,0,0,,0.00,0.0049.30,17.68,215.16,0.00,0.00
282162,0,0,,0.00,0.0033.30,11.64,195.79,0.00,0.00
292180,0,0,,0.00,0.0016.56,14.58,177.50,0.00,0.00
302193,0,0,,0.00,0.006.15,22.63,160.53,0.00,0.00
312199,0,0,,0.00,0.000.70,30.40,140.66,0.00,0.00
1779,0,0,,0.00,0.0058.92,59.20,300.44,0.00,0.00
1841,0,0,,0.00,0.0056.37,63.10,307.41,0.00,0.00
11850,0,0,,0.00,0.0039.31,1.79,5.99,0.00,0.00
21857,0,0,,0.00,0.0017.90,0.65,34.78,0.00,0.00
31864,0,0,,0.00,0.0044.98,-4.08,308.08,0.00,0.00
41883,0,0,,0.00,0.002.42,2.90,191.23,0.00,0.00
51895,0,0,,0.00,0.0012.08,-0.22,14.23,0.00,0.00
61908,0,0,,0.00,0.0010.06,-3.86,221.41,0.00,0.00
71915,0,0,,0.00,0.0010.79,-5.87,220.66,0.00,0.00
81923,0,0,,0.00,0.0011.08,-5.83,220.85,0.00,0.00
91943,0,0,,0.00,0.0011.48,-5.77,221.08,0.00,0.00
101956,0,0,,0.00,0.0011.60,-5.38,221.31,0.00,0.00
111968,0,0,,0.00,0.0011.80,-4.92,221.88,0.00,0.00
1779,0,0,,0.00,0.0029.67,67.84,315.57,0.00,0.00
11788,0,0,,0.00,0.0018.13,-2.54,231.09,0.00,0.00
21795,0,0,,0.00,0.0016.88,-4.39,226.71,0.00,0.00
31802,0,0,,0.00,0.0017.06,-4.19,227.10,0.00,0.00
41821,0,0,,0.00,0.0017.07,-4.23,227.04,0.00,0.00
51834,0,0,,0.00,0.0017.30,-4.21,226.94,0.00,0.00
61846,0,0,,0.00,0.0017.12,-4.49,226.63,0.00,0.00
71853,0,0,,0.00,0.0017.30,-4.04,226.94,0.00,0.00
81860,0,0,,0.00,0.0017.27,-4.04,227.10,0.00,0.00
91879,0,0,,0.00,0.0016.78,-3.73,226.96,0.00,0.00
101892,0,0,,0.00,0.0016.94,-3.32,227.53,0.00,0.00
1779,0,0,,0.00,0.0035.82,69.06,310.29,0.00,0.00
11788,0,0,,0.00,0.0019.13,-2.01,231.81,0.00,0.00
21795,0,0,,0.00,0.0017.98,-3.78,227.88,0.00,0.00
31802,0,0,,0.00,0.0018.21,-3.81,227.91,0.00,0.00
41821,0,0,,0.00,0.0018.34,-3.76,228.03,0.00,0.00
51835,0,0,,0.00,0.0018.12,-3.79,227.90,0.00,0.00
61846,0,0,,0.00,0.0018.16,-3.97,227.53,0.00,0.00
71853,0,0,,0.00,0.0017.79,-3.95,227.49,0.00,0.00
81860,0,0,,0.00,0.0017.82,-3.88,227.64,0.00,0.00
91878,0,0,,0.00,0.0017.79,-4.10,227.06,0.00,0.00
101891,0,0,,0.00,0.0017.75,-4.00,227.15,0.00,0.00
111905,0,0,,0.00,0.0017.52,-4.14,226.90,0.00,0.00
121912,0,0,,0.00,0.0017.49,-3.99,226.98,0.00,0.00
131919,0,0,,0.00,0.0017.83,-4.04,227.05,0.00,0.00
141926,0,0,,0.00,0.0017.77,-4.03,227.11,0.00,0.00
151950,0,0,,0.00,0.0017.98,-3.99,227.25,0.00,0.00
161966,0,0,,0.00,0.0018.01,-3.94,227.23,0.00,0.00
171977,0,0,,0.00,0.0018.38,-4.00,227.46,0.00,0.00
181988,0,0,,0.00,0.0018.12,-3.84,227.50,0.00,0.00
191995,0,0,,0.00,0.0018.25,-3.97,227.51,0.00,0.00
202002,0,0,,0.00,0.0018.18,-3.88,227.52,0.00,0.00
212009,0,0,,0.00,0.0018.36,-3.92,227.65,0.00,0.00
222034,0,0,,0.00,0.0018.01,-3.94,227.44,0.00,0.00
232041,0,0,,0.00,0.0017.99,-4.00,227.26,0.00,0.00
242048,0,0,,0.00,0.0018.10,-4.08,227.25,0.00,0.00
252055,0,0,,0.00,0.0018.10,-3.99,227.41,0.00,0.00
262063,0,0,,0.00,0.0018.13,-4.11,227.35,0.00,0.00
272087,0,0,,0.00,0.0018.06,-4.00,227.29,0.00,0.00
282094,0,0,,0.00,0.0018.00,-4.06,227.42,0.00,0.00
292101,0,0,,0.00,0.0017.92,-4.07,227.27,0.00,0.00
302108,0,0,,0.00,0.0017.91,-4.11,227.25,0.00,0.00
312115,0,0,,0.00,0.0018.07,-4.08,227.42,0.00,0.00
322122,0,0,,0.00,0.0017.92,-4.20,227.20,0.00,0.00
332142,0,0,,0.00,0.0017.87,-4.06,227.23,0.00,0.00
342157,0,0,,0.00,0.0017.93,-3.97,227.33,0.00,0.00
352166,0,0,,0.00,0.0018.01,0.02,234.60,0.00,0.00
362175,0,0,,0.00,0.0017.69,-2.60,226.82,0.00,0.00
372200,0,0,,0.00,0.0017.67,-2.96,226.40,0.00,0.00
382207,0,0,,0.00,0.0017.75,-3.05,226.56,0.00,0.00
392214,0,0,,0.00,0.0017.53,-3.17,226.13,0.00,0.00
402221,0,0,,0.00,0.0017.49,-3.18,226.06,0.00,0.00
412228,0,0,,0.00,0.0017.75,-3.10,226.32,0.00,0.00
422235,0,0,,0.00,0.0017.89,-3.04,226.32,0.00,0.00
432255,0,0,,0.00,0.0017.56,-3.18,226.34,0.00,0.00
442270,0,0,,0.00,0.0017.67,-3.04,226.58,0.00,0.00
452280,0,0,,0.00,0.0017.94,-3.09,226.71,0.00,0.00
462289,0,0,,0.00,0.0017.98,-2.92,226.53,0.00,0.00
472314,0,0,,0.00,0.0017.92,-3.13,226.28,0.00,0.00
482321,0,0,,0.00,0.0018.27,-2.97,226.73,0.00,0.00
492328,0,0,,0.00,0.0018.00,-3.19,226.49,0.00,0.00
502335,0,0,,0.00,0.0017.99,-3.13,226.37,0.00,0.00
512342,0,0,,0.00,0.0018.01,-3.38,226.36,0.00,0.00
1845,0,0,,0.00,0.00-28.57,76.95,63.98,0.00,0.00
1868,0,0,,0.00,0.0084.50,60.40,341.44,0.00,0.00
11914,0,0,,0.00,0.0050.69,27.92,283.20,0.00,0.00
21921,0,0,,0.00,0.007.80,21.94,299.38,0.00,0.00
1779,0,0,,0.00,0.007.75,76.82,321.10,0.00,0.00
11787,0,0,,0.00,0.004.75,4.45,223.41,0.00,0.00
21794,0,0,,0.00,0.000.74,0.42,211.48,0.00,0.00
31801,0,0,,0.00,0.000.73,0.61,211.47,0.00,0.00
41819,0,0,,0.00,0.000.55,0.64,211.00,0.00,0.00
51832,0,0,,0.00,0.000.42,1.16,211.62,0.00,0.00
61844,0,0,,0.00,0.000.48,1.16,211.36,0.00,0.00
71851,0,0,,0.00,0.000.69,2.04,212.78,0.00,0.00
81858,0,0,,0.00,0.001.33,2.40,214.04,0.00,0.00
91877,0,0,,0.00,0.001.86,2.69,214.63,0.00,0.00
101890,0,0,,0.00,0.002.06,2.57,214.60,0.00,0.00
111902,0,0,,0.00,0.002.06,2.23,214.01,0.00,0.00
121909,0,0,,0.00,0.002.24,2.04,213.60,0.00,0.00
131916,0,0,,0.00,0.001.69,1.80,212.68,0.00,0.00
141935,0,0,,0.00,0.001.57,1.82,213.20,0.00,0.00
151947,0,0,,0.00,0.001.73,2.28,213.73,0.00,0.00
161954,0,0,,0.00,0.001.73,2.25,213.67,0.00,0.00
171961,0,0,,0.00,0.001.71,2.13,213.37,0.00,0.00
181969,0,0,,0.00,0.002.04,2.06,213.14,0.00,0.00
191976,0,0,,0.00,0.002.16,2.02,212.97,0.00,0.00
201983,0,0,,0.00,0.001.81,1.85,212.26,0.00,0.00
212001,0,0,,0.00,0.001.53,1.66,211.50,0.00,0.00
222008,0,0,,0.00,0.001.46,1.70,211.20,0.00,0.00
232018,0,0,,0.00,0.001.15,1.63,210.81,0.00,0.00
242026,0,0,,0.00,0.000.92,1.83,210.77,0.00,0.00
252033,0,0,,0.00,0.000.57,1.66,209.95,0.00,0.00
262040,0,0,,0.00,0.000.76,1.79,210.25,0.00,0.00
272051,0,0,,0.00,0.000.63,2.05,210.25,0.00,0.00
282058,0,0,,0.00,0.000.94,2.34,210.97,0.00,0.00
292067,0,0,,0.00,0.000.53,2.54,211.28,0.00,0.00
302081,0,0,,0.00,0.000.63,2.65,211.48,0.00,0.00
312101,0,0,,0.00,0.001.20,2.70,211.71,0.00,0.00
322109,0,0,,0.00,0.000.98,2.91,212.02,0.00,0.00
332117,0,0,,0.00,0.001.33,3.42,212.98,0.00,0.00
342131,0,0,,0.00,0.001.05,3.07,211.96,0.00,0.00
352142,0,0,,0.00,0.001.05,3.26,212.34,0.00,0.00
362156,0,0,,0.00,0.000.80,3.42,212.20,0.00,0.00
372167,0,0,,0.00,0.001.08,3.25,212.26,0.00,0.00
382181,0,0,,0.00,0.000.53,2.84,211.24,0.00,0.00
392192,0,0,,0.00,0.000.29,3.20,211.64,0.00,0.00
402206,0,0,,0.00,0.000.31,3.44,212.03,0.00,0.00
412217,0,0,,0.00,0.001.04,3.69,212.74,0.00,0.00
422233,0,0,,0.00,0.002.02,3.88,213.66,0.00,0.00
432242,0,0,,0.00,0.001.86,3.88,213.50,0.00,0.00
442256,0,0,,0.00,0.001.42,3.82,213.09,0.00,0.00
452266,0,0,,0.00,0.000.95,3.63,212.49,0.00,0.00
462280,0,0,,0.00,0.000.78,3.44,211.91,0.00,0.00
472291,0,0,,0.00,0.000.96,3.58,212.24,0.00,0.00
482305,0,0,,0.00,0.001.14,3.56,212.21,0.00,0.00
492316,0,0,,0.00,0.001.24,3.67,211.61,0.00,0.00
502330,0,0,,0.00,0.001.17,3.74,211.48,0.00,0.00
512341,0,0,,0.00,0.001.09,3.49,211.14,0.00,0.00
522357,0,0,,0.00,0.001.11,3.39,211.10,0.00,0.00
532366,0,0,,0.00,0.001.01,3.69,211.31,0.00,0.00
542380,0,0,,0.00,0.001.08,3.43,211.06,0.00,0.00
552391,0,0,,0.00,0.001.01,3.62,211.33,0.00,0.00
562403,0,0,,0.00,0.001.04,3.59,211.19,0.00,0.00
572410,0,0,,0.00,0.000.98,3.68,211.36,0.00,0.00
582417,0,0,,0.00,0.000.87,3.81,211.35,0.00,0.00
592423,0,0,,0.00,0.000.96,3.61,211.30,0.00,0.00
602444,0,0,,0.00,0.000.71,3.60,211.05,0.00,0.00
612451,0,0,,0.00,0.000.88,3.63,211.24,0.00,0.00
622457,0,0,,0.00,0.000.86,3.70,211.33,0.00,0.00
632465,0,0,,0.00,0.000.92,3.66,211.24,0.00,0.00
642471,0,0,,0.00,0.000.89,3.79,211.46,0.00,0.00
652477,0,0,,0.00,0.000.82,3.73,211.22,0.00,0.00
662496,0,0,,0.00,0.000.94,3.77,211.30,0.00,0.00
672510,0,0,,0.00,0.000.91,3.77,211.39,0.00,0.00
682521,0,0,,0.00,0.001.04,3.81,211.38,0.00,0.00
692528,0,0,,0.00,0.000.99,3.79,211.12,0.00,0.00
702534,0,0,,0.00,0.001.06,3.89,211.43,0.00,0.00
712553,0,0,,0.00,0.000.92,3.89,211.41,0.00,0.00
722565,0,0,,0.00,0.000.75,3.85,211.23,0.00,0.00
732578,0,0,,0.00,0.001.12,3.96,211.36,0.00,0.00
742585,0,0,,0.00,0.001.17,3.72,211.40,0.00,0.00
752591,0,0,,0.00,0.001.03,4.20,211.81,0.00,0.00
762610,0,0,,0.00,0.001.06,3.82,211.37,0.00,0.00
772625,0,0,,0.00,0.000.98,3.95,211.57,0.00,0.00
782635,0,0,,0.00,0.000.97,3.83,211.22,0.00,0.00
792642,0,0,,0.00,0.000.86,4.06,211.50,0.00,0.00
802649,0,0,,0.00,0.001.07,4.07,211.57,0.00,0.00
812668,0,0,,0.00,0.000.81,4.05,211.54,0.00,0.00
822682,0,0,,0.00,0.000.82,3.97,211.63,0.00,0.00
832693,0,0,,0.00,0.001.09,4.15,211.73,0.00,0.00
842702,0,0,,0.00,0.000.94,4.16,211.72,0.00,0.00
852708,0,0,,0.00,0.000.93,4.11,211.44,0.00,0.00
862727,0,0,,0.00,0.000.95,4.03,211.57,0.00,0.00
872741,0,0,,0.00,0.001.03,4.12,211.55,0.00,0.00
882752,0,0,,0.00,0.000.97,4.14,211.79,0.00,0.00
892759,0,0,,0.00,0.001.20,4.29,211.68,0.00,0.00
902765,0,0,,0.00,0.001.12,4.14,211.66,0.00,0.00
912784,0,0,,0.00,0.001.13,4.11,211.37,0.00,0.00
922798,0,0,,0.00,0.001.05,3.93,211.40,0.00,0.00
932809,0,0,,0.00,0.001.17,4.09,211.46,0.00,0.00
942818,0,0,,0.00,0.000.97,3.91,211.17,0.00,0.00
952824,0,0,,0.00,0.001.03,4.00,211.25,0.00,0.00
962843,0,0,,0.00,0.001.09,4.03,211.29,0.00,0.00
972857,0,0,,0.00,0.000.96,3.96,211.22,0.00,0.00
982868,0,0,,0.00,0.000.92,3.94,211.00,0.00,0.00
992875,0,0,,0.00,0.000.57,3.82,210.35,0.00,0.00
1002881,0,0,,0.00,0.000.66,3.89,210.82,0.00,0.00
1012900,0,0,,0.00,0.000.65,4.06,210.94,0.00,0.00
1022914,0,0,,0.00,0.000.65,3.59,209.93,0.00,0.00
1032925,0,0,,0.00,0.001.21,3.73,210.17,0.00,0.00
1042934,0,0,,0.00,0.000.61,3.11,209.82,0.00,0.00
1052959,0,0,,0.00,0.001.38,3.92,210.71,0.00,0.00
1062966,0,0,,0.00,0.000.90,3.03,209.93,0.00,0.00
1072971,0,0,,0.00,0.001.39,3.57,209.98,0.00,0.00
1082979,0,0,,0.00,0.001.67,3.86,210.34,0.00,0.00
1092985,0,0,,0.00,0.001.47,3.80,210.14,0.00,0.00
1102993,0,0,,0.00,0.001.53,3.72,210.00,0.00,0.00
1113012,0,0,,0.00,0.001.39,3.72,210.06,0.00,0.00
1123026,0,0,,0.00,0.001.64,3.71,210.28,0.00,0.00
1133036,0,0,,0.00,0.001.61,3.84,210.20,0.00,0.00
1143043,0,0,,0.00,0.001.54,3.82,210.10,0.00,0.00
1153070,0,0,,0.00,0.001.62,3.76,210.18,0.00,0.00
1163078,0,0,,0.00,0.001.48,3.96,210.49,0.00,0.00
1173084,0,0,,0.00,0.001.76,4.01,210.58,0.00,0.00
1183092,0,0,,0.00,0.001.59,3.82,210.41,0.00,0.00
1193097,0,0,,0.00,0.001.74,3.84,210.53,0.00,0.00
1203104,0,0,,0.00,0.001.64,3.81,210.17,0.00,0.00
1213123,0,0,,0.00,0.001.92,3.91,210.44,0.00,0.00
1223137,0,0,,0.00,0.001.90,3.77,210.55,0.00,0.00
1233148,0,0,,0.00,0.001.87,4.04,210.70,0.00,0.00
1243155,0,0,,0.00,0.001.81,3.72,210.38,0.00,0.00
1253162,0,0,,0.00,0.001.81,3.91,210.65,0.00,0.00
1263182,0,0,,0.00,0.001.65,3.82,210.21,0.00,0.00
1273195,0,0,,0.00,0.001.64,3.89,210.46,0.00,0.00
1283207,0,0,,0.00,0.001.75,3.77,210.26,0.00,0.00
1293213,0,0,,0.00,0.001.61,3.82,210.24,0.00,0.00
1303221,0,0,,0.00,0.001.69,3.87,210.49,0.00,0.00
1313240,0,0,,0.00,0.001.79,3.77,210.11,0.00,0.00
1323253,0,0,,0.00,0.001.85,3.89,210.36,0.00,0.00
1333265,0,0,,0.00,0.001.67,3.85,210.17,0.00,0.00
1343272,0,0,,0.00,0.001.72,3.90,210.50,0.00,0.00
1353279,0,0,,0.00,0.001.72,3.88,210.60,0.00,0.00
1363299,0,0,,0.00,0.001.63,3.79,210.32,0.00,0.00
1373312,0,0,,0.00,0.001.95,3.99,210.87,0.00,0.00
1383324,0,0,,0.00,0.001.76,3.85,210.50,0.00,0.00
1393330,0,0,,0.00,0.001.68,3.98,210.63,0.00,0.00
1403336,0,0,,0.00,0.001.73,4.00,210.71,0.00,0.00
1413356,0,0,,0.00,0.002.02,3.93,210.70,0.00,0.00
1423369,0,0,,0.00,0.001.71,3.79,210.39,0.00,0.00
1433381,0,0,,0.00,0.001.74,3.92,210.29,0.00,0.00
1443388,0,0,,0.00,0.001.68,3.75,210.03,0.00,0.00
1453395,0,0,,0.00,0.001.55,3.77,210.36,0.00,0.00
1463415,0,0,,0.00,0.001.64,3.81,210.38,0.00,0.00
1473429,0,0,,0.00,0.001.79,3.93,210.58,0.00,0.00
1483440,0,0,,0.00,0.001.81,3.89,210.58,0.00,0.00
1493447,0,0,,0.00,0.001.55,3.86,210.35,0.00,0.00
1503452,0,0,,0.00,0.001.64,3.78,210.28,0.00,0.00
1513472,0,0,,0.00,0.001.59,3.73,210.22,0.00,0.00
1523485,0,0,,0.00,0.001.61,3.72,210.12,0.00,0.00
1533497,0,0,,0.00,0.001.66,3.80,210.54,0.00,0.00
1543503,0,0,,0.00,0.001.77,3.94,210.61,0.00,0.00
1553509,0,0,,0.00,0.001.77,3.96,210.67,0.00,0.00
1563538,0,0,,0.00,0.001.73,3.91,210.63,0.00,0.00
1573544,0,0,,0.00,0.001.88,3.95,210.68,0.00,0.00
1583554,0,0,,0.00,0.001.81,3.72,210.48,0.00,0.00
1593560,0,0,,0.00,0.001.96,3.58,210.19,0.00,0.00
1603567,0,0,,0.00,0.001.93,3.91,210.69,0.00,0.00
1613587,0,0,,0.00,0.001.71,3.99,210.69,0.00,0.00
1623600,0,0,,0.00,0.001.78,3.87,210.71,0.00,0.00
1633612,0,0,,0.00,0.001.79,3.93,210.76,0.00,0.00
1643618,0,0,,0.00,0.001.50,3.78,210.38,0.00,0.00
1653624,0,0,,0.00,0.001.46,3.85,210.56,0.00,0.00
1663646,0,0,,0.00,0.001.57,3.90,210.45,0.00,0.00
1673659,0,0,,0.00,0.001.75,3.98,210.63,0.00,0.00
1683671,0,0,,0.00,0.001.77,3.81,210.51,0.00,0.00
1693677,0,0,,0.00,0.001.77,3.80,210.39,0.00,0.00
1703683,0,0,,0.00,0.001.72,3.83,210.33,0.00,0.00
1713703,0,0,,0.00,0.001.75,3.74,210.50,0.00,0.00
1723716,0,0,,0.00,0.001.52,3.86,210.49,0.00,0.00
1733728,0,0,,0.00,0.001.94,3.77,210.60,0.00,0.00
1743734,0,0,,0.00,0.001.43,3.68,210.34,0.00,0.00
1753740,0,0,,0.00,0.001.69,4.06,210.89,0.00,0.00
1763762,0,0,,0.00,0.001.82,3.70,210.46,0.00,0.00
1773775,0,0,,0.00,0.001.25,3.97,210.46,0.00,0.00
1783787,0,0,,0.00,0.001.27,3.90,210.65,0.00,0.00
1793793,0,0,,0.00,0.001.14,3.72,210.20,0.00,0.00
1803799,0,0,,0.00,0.001.52,3.90,210.85,0.00,0.00
1813819,0,0,,0.00,0.001.43,3.86,210.52,0.00,0.00
1823832,0,0,,0.00,0.001.45,3.77,210.38,0.00,0.00
1833844,0,0,,0.00,0.001.87,3.91,210.77,0.00,0.00
1843850,0,0,,0.00,0.001.66,3.64,210.44,0.00,0.00
1853856,0,0,,0.00,0.001.52,3.71,210.52,0.00,0.00
1863878,0,0,,0.00,0.001.39,3.81,210.37,0.00,0.00
1873891,0,0,,0.00,0.001.21,3.78,210.38,0.00,0.00
1883903,0,0,,0.00,0.001.66,3.84,210.57,0.00,0.00
1893909,0,0,,0.00,0.001.01,3.70,210.30,0.00,0.00
1903915,0,0,,0.00,0.001.42,3.69,210.35,0.00,0.00
1913935,0,0,,0.00,0.001.48,3.79,210.53,0.00,0.00
1923946,0,0,,0.00,0.001.25,3.88,210.75,0.00,0.00
1933952,0,0,,0.00,0.001.54,3.69,210.50,0.00,0.00
1943964,0,0,,0.00,0.001.93,3.70,210.54,0.00,0.00
1953970,0,0,,0.00,0.001.83,3.74,210.72,0.00,0.00
1963983,0,0,,0.00,0.001.57,3.84,210.61,0.00,0.00
1973996,0,0,,0.00,0.001.29,3.67,210.35,0.00,0.00
1984003,0,0,,0.00,0.001.49,4.05,210.99,0.00,0.00
1994010,0,0,,0.00,0.001.22,4.12,210.77,0.00,0.00
2004017,0,0,,0.00,0.001.05,3.74,210.19,0.00,0.00
2014024,0,0,,0.00,0.001.33,3.88,210.63,0.00,0.00
2024045,0,0,,0.00,0.001.28,3.74,210.57,0.00,0.00
2034051,0,0,,0.00,0.000.79,3.91,210.35,0.00,0.00
2044057,0,0,,0.00,0.001.43,3.79,210.38,0.00,0.00
2054064,0,0,,0.00,0.000.85,3.81,210.26,0.00,0.00
2064070,0,0,,0.00,0.001.07,3.98,210.70,0.00,0.00
2074078,0,0,,0.00,0.001.38,3.89,210.63,0.00,0.00
2084100,0,0,,0.00,0.001.07,3.82,210.56,0.00,0.00
2094107,0,0,,0.00,0.000.90,3.94,210.58,0.00,0.00
2104117,0,0,,0.00,0.000.95,3.86,210.46,0.00,0.00
2114164,0,0,,0.00,0.001.04,3.91,210.50,0.00,0.00
2124220,0,0,,0.00,0.001.10,3.86,210.67,0.00,0.00
2134276,0,0,,0.00,0.001.10,3.89,210.87,0.00,0.00
2144332,0,0,,0.00,0.001.27,3.88,210.72,0.00,0.00
2154388,0,0,,0.00,0.001.34,3.94,210.77,0.00,0.00
2164444,0,0,,0.00,0.001.01,3.76,210.39,0.00,0.00
2174500,0,0,,0.00,0.001.19,3.69,210.26,0.00,0.00
2184556,0,0,,0.00,0.001.15,3.93,210.47,0.00,0.00
2194612,0,0,,0.00,0.000.92,3.77,210.31,0.00,0.00
2204668,0,0,,0.00,0.000.78,3.89,210.40,0.00,0.00
2214724,0,0,,0.00,0.000.87,3.72,210.27,0.00,0.00
2224780,0,0,,0.00,0.000.95,3.84,210.59,0.00,0.00
2234836,0,0,,0.00,0.000.98,3.90,210.58,0.00,0.00
2244892,0,0,,0.00,0.001.30,3.73,210.55,0.00,0.00
2254948,0,0,,0.00,0.001.01,3.98,210.60,0.00,0.00
2265004,0,0,,0.00,0.000.71,3.79,210.39,0.00,0.00
2275060,0,0,,0.00,0.000.98,3.89,210.66,0.00,0.00
2285116,0,0,,0.00,0.001.04,3.82,210.48,0.00,0.00
2295172,0,0,,0.00,0.000.89,3.96,210.81,0.00,0.00
2305228,0,0,,0.00,0.001.00,3.91,210.82,0.00,0.00
2315284,0,0,,0.00,0.000.87,3.80,210.35,0.00,0.00
2325340,0,0,,0.00,0.000.94,3.92,210.76,0.00,0.00
2335396,0,0,,0.00,0.000.94,3.92,210.65,0.00,0.00
2345452,0,0,,0.00,0.001.05,3.86,210.77,0.00,0.00
2355508,0,0,,0.00,0.000.93,3.96,210.79,0.00,0.00
2365564,0,0,,0.00,0.001.00,3.95,210.86,0.00,0.00
2375620,0,0,,0.00,0.001.13,3.96,211.00,0.00,0.00
2385676,0,0,,0.00,0.001.07,4.02,211.08,0.00,0.00
2395732,0,0,,0.00,0.001.22,3.97,210.98,0.00,0.00
2405788,0,0,,0.00,0.001.16,3.87,210.95,0.00,0.00
2415844,0,0,,0.00,0.001.25,3.94,210.85,0.00,0.00
2425900,0,0,,0.00,0.001.13,3.93,211.03,0.00,0.00
2435956,0,0,,0.00,0.001.28,3.99,211.10,0.00,0.00
2446012,0,0,,0.00,0.001.23,4.06,211.17,0.00,0.00
2456068,0,0,,0.00,0.000.89,3.88,210.67,0.00,0.00
2466124,0,0,,0.00,0.001.17,3.94,210.87,0.00,0.00
2476180,0,0,,0.00,0.001.12,3.76,210.72,0.00,0.00
2486236,0,0,,0.00,0.001.28,4.16,211.12,0.00,0.00
2496292,0,0,,0.00,0.001.04,3.83,210.58,0.00,0.00
2506348,0,0,,0.00,0.001.42,3.91,211.08,0.00,0.00
2516404,0,0,,0.00,0.001.31,3.99,211.26,0.00,0.00
2526460,0,0,,0.00,0.001.50,4.01,211.45,0.00,0.00
2536516,0,0,,0.00,0.001.30,3.82,211.24,0.00,0.00
2546572,0,0,,0.00,0.001.44,3.87,211.39,0.00,0.00
2556628,0,0,,0.00,0.001.32,3.83,210.99,0.00,0.00
2566684,0,0,,0.00,0.001.25,3.81,211.09,0.00,0.00
2576740,0,0,,0.00,0.001.42,3.89,211.31,0.00,0.00
2586796,0,0,,0.00,0.001.38,3.87,211.31,0.00,0.00
2596852,0,0,,0.00,0.001.30,3.83,211.31,0.00,0.00
2606908,0,0,,0.00,0.001.44,3.84,211.27,0.00,0.00
2616964,0,0,,0.00,0.001.55,3.97,211.58,0.00,0.00
2627020,0,0,,0.00,0.001.57,3.89,211.32,0.00,0.00
2637076,0,0,,0.00,0.001.66,3.86,211.54,0.00,0.00
2647132,0,0,,0.00,0.001.43,3.97,211.46,0.00,0.00
2657188,0,0,,0.00,0.001.82,3.90,211.60,0.00,0.00
2667244,0,0,,0.00,0.001.69,3.85,211.49,0.00,0.00
2677300,0,0,,0.00,0.001.75,4.04,211.92,0.00,0.00
2687356,0,0,,0.00,0.001.58,3.85,211.56,0.00,0.00
2697412,0,0,,0.00,0.001.41,4.04,211.34,0.00,0.00
2707468,0,0,,0.00,0.001.65,3.93,211.81,0.00,0.00
2717524,0,0,,0.00,0.001.61,3.84,211.56,0.00,0.00
2727580,0,0,,0.00,0.001.58,3.89,211.61,0.00,0.00
2737636,0,0,,0.00,0.001.64,3.68,211.31,0.00,0.00
2747692,0,0,,0.00,0.001.48,3.84,211.81,0.00,0.00
2757748,0,0,,0.00,0.001.57,4.00,211.63,0.00,0.00
2767804,0,0,,0.00,0.001.76,3.82,211.73,0.00,0.00
2777860,0,0,,0.00,0.001.57,3.85,211.65,0.00,0.00
2787916,0,0,,0.00,0.001.64,3.96,211.69,0.00,0.00
2798012,0,0,,0.00,0.001.69,3.92,211.60,0.00,0.00
2808042,0,0,,0.00,0.001.66,3.86,211.53,0.00,0.00
2818098,0,0,,0.00,0.001.69,3.91,211.67,0.00,0.00
2828154,0,0,,0.00,0.001.66,4.08,211.83,0.00,0.00
2838210,0,0,,0.00,0.001.67,3.88,211.47,0.00,0.00
2848266,0,0,,0.00,0.001.70,4.08,211.73,0.00,0.00
2858322,0,0,,0.00,0.001.67,3.93,211.75,0.00,0.00
2868378,0,0,,0.00,0.001.74,3.98,211.69,0.00,0.00
2878434,0,0,,0.00,0.001.59,3.86,211.56,0.00,0.00
2888502,0,0,,0.00,0.001.65,3.87,211.56,0.00,0.00
2898571,0,0,,0.00,0.001.65,4.02,211.66,0.00,0.00
2908578,0,0,,0.00,0.001.47,4.06,211.69,0.00,0.00
2918584,0,0,,0.00,0.001.69,3.87,211.74,0.00,0.00
2928596,0,0,,0.00,0.001.69,4.10,211.77,0.00,0.00
2938602,0,0,,0.00,0.001.76,3.86,211.76,0.00,0.00
2948615,0,0,,0.00,0.001.59,3.88,211.65,0.00,0.00
2958622,0,0,,0.00,0.001.72,3.77,211.52,0.00,0.00
2968642,0,0,,0.00,0.001.63,3.86,211.45,0.00,0.00
2978655,0,0,,0.00,0.001.67,3.98,211.67,0.00,0.00
2988666,0,0,,0.00,0.001.66,3.83,211.48,0.00,0.00
2998674,0,0,,0.00,0.001.88,3.99,211.70,0.00,0.00
3008700,0,0,,0.00,0.001.75,3.98,211.62,0.00,0.00
3018706,0,0,,0.00,0.001.78,4.07,211.91,0.00,0.00
3028713,0,0,,0.00,0.001.74,3.83,211.59,0.00,0.00
3038720,0,0,,0.00,0.001.66,3.95,211.77,0.00,0.00
3048727,0,0,,0.00,0.001.77,3.86,211.65,0.00,0.00
3058734,0,0,,0.00,0.001.78,3.97,211.72,0.00,0.00
3068754,0,0,,0.00,0.001.98,4.04,211.82,0.00,0.00
3078768,0,0,,0.00,0.001.90,3.98,212.06,0.00,0.00
3088779,0,0,,0.00,0.001.70,3.83,211.67,0.00,0.00
3098787,0,0,,0.00,0.001.69,3.70,211.64,0.00,0.00
3108813,0,0,,0.00,0.001.73,3.82,211.56,0.00,0.00
3118819,0,0,,0.00,0.001.84,3.91,211.90,0.00,0.00
3128826,0,0,,0.00,0.001.76,3.98,211.86,0.00,0.00
3138833,0,0,,0.00,0.001.57,3.94,211.64,0.00,0.00
3148840,0,0,,0.00,0.001.79,3.90,211.66,0.00,0.00
3158847,0,0,,0.00,0.001.55,4.00,211.58,0.00,0.00
3168867,0,0,,0.00,0.001.54,4.02,211.60,0.00,0.00
3178880,0,0,,0.00,0.001.61,3.72,211.33,0.00,0.00
3188892,0,0,,0.00,0.001.49,3.86,211.52,0.00,0.00
3198900,0,0,,0.00,0.001.38,3.97,211.42,0.00,0.00
3208926,0,0,,0.00,0.001.35,3.91,211.38,0.00,0.00
3218932,0,0,,0.00,0.001.34,3.71,211.25,0.00,0.00
3228939,0,0,,0.00,0.001.45,3.91,211.46,0.00,0.00
3238946,0,0,,0.00,0.001.37,3.85,211.22,0.00,0.00
3248953,0,0,,0.00,0.001.49,3.99,211.49,0.00,0.00
3258960,0,0,,0.00,0.001.32,3.89,211.14,0.00,0.00
3268981,0,0,,0.00,0.001.49,3.84,211.33,0.00,0.00
3278994,0,0,,0.00,0.001.52,3.88,211.42,0.00,0.00
3289006,0,0,,0.00,0.000.90,3.52,211.09,0.00,0.00
3299012,0,0,,0.00,0.001.02,3.57,211.18,0.00,0.00
3309020,0,0,,0.00,0.001.27,3.74,211.12,0.00,0.00
3319039,0,0,,0.00,0.001.23,3.91,211.21,0.00,0.00
3329053,0,0,,0.00,0.001.42,3.85,211.21,0.00,0.00
3339064,0,0,,0.00,0.001.37,3.89,211.28,0.00,0.00
3349070,0,0,,0.00,0.001.00,3.82,210.86,0.00,0.00
3359077,0,0,,0.00,0.001.39,3.74,210.97,0.00,0.00
3369097,0,0,,0.00,0.001.45,3.89,211.29,0.00,0.00
3379110,0,0,,0.00,0.001.26,3.68,210.85,0.00,0.00
3389122,0,0,,0.00,0.001.33,3.92,211.29,0.00,0.00
3399128,0,0,,0.00,0.001.50,3.88,211.32,0.00,0.00
3409136,0,0,,0.00,0.001.38,3.82,211.07,0.00,0.00
3419156,0,0,,0.00,0.001.58,3.50,211.25,0.00,0.00
3429169,0,0,,0.00,0.001.06,4.06,211.22,0.00,0.00
3439181,0,0,,0.00,0.001.32,3.87,211.28,0.00,0.00
3449187,0,0,,0.00,0.001.29,3.98,211.23,0.00,0.00
3459194,0,0,,0.00,0.001.11,3.66,210.61,0.00,0.00
3469214,0,0,,0.00,0.001.07,3.83,210.98,0.00,0.00
3479227,0,0,,0.00,0.001.01,3.81,210.68,0.00,0.00
3489239,0,0,,0.00,0.001.23,3.94,211.28,0.00,0.00
3499245,0,0,,0.00,0.001.36,3.71,210.91,0.00,0.00
3509253,0,0,,0.00,0.001.23,3.93,211.10,0.00,0.00
3519273,0,0,,0.00,0.001.00,3.85,210.79,0.00,0.00
3529287,0,0,,0.00,0.001.33,3.78,210.81,0.00,0.00
3539298,0,0,,0.00,0.001.25,3.78,211.12,0.00,0.00
3549304,0,0,,0.00,0.001.41,4.00,211.28,0.00,0.00
3559311,0,0,,0.00,0.001.28,3.74,210.86,0.00,0.00
3569331,0,0,,0.00,0.001.03,3.95,211.05,0.00,0.00
3579340,0,0,,0.00,0.001.09,3.65,210.59,0.00,0.00
3589347,0,0,,0.00,0.001.03,3.89,210.82,0.00,0.00
3599360,0,0,,0.00,0.001.06,3.67,210.35,0.00,0.00
3609390,0,0,,0.00,0.001.07,3.79,210.87,0.00,0.00
3619397,0,0,,0.00,0.001.08,3.67,210.62,0.00,0.00
3629404,0,0,,0.00,0.001.08,3.76,210.59,0.00,0.00
3639411,0,0,,0.00,0.001.20,3.61,210.52,0.00,0.00
3649418,0,0,,0.00,0.001.03,3.68,210.47,0.00,0.00
3659443,0,0,,0.00,0.001.24,3.60,210.53,0.00,0.00
3669449,0,0,,0.00,0.000.91,3.74,210.34,0.00,0.00
3679456,0,0,,0.00,0.000.97,3.62,210.41,0.00,0.00
3689463,0,0,,0.00,0.000.85,3.67,210.25,0.00,0.00
3699470,0,0,,0.00,0.001.38,3.76,210.72,0.00,0.00
3709477,0,0,,0.00,0.001.09,3.58,210.12,0.00,0.00
3719499,0,0,,0.00,0.001.37,3.59,210.47,0.00,0.00
3729513,0,0,,0.00,0.001.04,3.77,210.50,0.00,0.00
3739524,0,0,,0.00,0.000.95,3.43,210.60,0.00,0.00
3749530,0,0,,0.00,0.000.66,3.32,210.44,0.00,0.00
3759537,0,0,,0.00,0.001.48,3.26,210.49,0.00,0.00
3769558,0,0,,0.00,0.001.13,3.35,210.40,0.00,0.00
3779572,0,0,,0.00,0.001.02,3.43,210.54,0.00,0.00
3789583,0,0,,0.00,0.001.51,3.42,210.89,0.00,0.00
3799589,0,0,,0.00,0.001.35,3.23,210.62,0.00,0.00
3809596,0,0,,0.00,0.001.32,3.27,210.57,0.00,0.00
3819618,0,0,,0.00,0.001.03,3.34,210.56,0.00,0.00
3829632,0,0,,0.00,0.001.15,3.35,210.59,0.00,0.00
3839643,0,0,,0.00,0.000.99,3.44,210.63,0.00,0.00
3849649,0,0,,0.00,0.000.81,3.34,210.46,0.00,0.00
3859656,0,0,,0.00,0.000.66,3.45,210.65,0.00,0.00
3869676,0,0,,0.00,0.000.59,3.44,210.51,0.00,0.00
3879690,0,0,,0.00,0.001.23,3.41,210.56,0.00,0.00
3889701,0,0,,0.00,0.000.73,3.43,210.50,0.00,0.00
3899707,0,0,,0.00,0.000.75,3.53,210.56,0.00,0.00
3909714,0,0,,0.00,0.000.60,3.53,210.49,0.00,0.00
3919743,0,0,,0.00,0.000.79,3.31,210.52,0.00,0.00
3929749,0,0,,0.00,0.000.73,3.61,210.92,0.00,0.00
3939759,0,0,,0.00,0.000.57,3.47,210.55,0.00,0.00
1854,0,0,,0.00,0.0018.15,81.49,316.24,0.00,0.00
1833,0,0,,0.00,0.0093.20,68.88,291.10,0.00,0.00
11842,0,0,,0.00,0.0021.79,29.02,319.49,0.00,0.00
21849,0,0,,0.00,0.0030.70,16.97,245.78,0.00,0.00
31856,0,0,,0.00,0.0023.55,4.60,201.57,0.00,0.00
41875,0,0,,0.00,0.0021.49,4.07,195.59,0.00,0.00
51887,0,0,,0.00,0.0021.50,4.46,194.91,0.00,0.00
61894,0,0,,0.00,0.0021.77,4.99,196.30,0.00,0.00
71900,0,0,,0.00,0.0021.70,4.59,195.30,0.00,0.00
81909,0,0,,0.00,0.0021.54,4.44,194.96,0.00,0.00
91916,0,0,,0.00,0.0021.57,5.14,194.89,0.00,0.00
101923,0,0,,0.00,0.0022.47,5.04,196.12,0.00,0.00
111940,0,0,,0.00,0.0022.07,4.80,195.19,0.00,0.00
121947,0,0,,0.00,0.0022.22,5.07,195.44,0.00,0.00
131958,0,0,,0.00,0.0022.11,4.86,195.12,0.00,0.00
141966,0,0,,0.00,0.0021.85,5.16,194.95,0.00,0.00
151973,0,0,,0.00,0.0021.26,4.61,193.18,0.00,0.00
